[{"latitude":48.4494734,"longitude":9.5035377,"name":"Gruorn","description":"Former village; Abandoned: 1939; Wikipedia: de:Gruorn","date":"1939-01-01","abandoned_year":"1939"},{"latitude":52.738335,"longitude":-1.0076012,"name":"Brooksby","description":"Former village; Abandoned: village","date":null,"abandoned_year":"village"},{"latitude":51.4429792,"longitude":15.5680229,"name":"Pstrąże","description":"Former village; Wikipedia: pl:Pstrąże","date":null},{"latitude":41.5496113,"longitude":-4.2552663,"name":"San Mamés","description":"Former hamlet; Wikipedia: es:San Mamés (Valladolid)","date":null},{"latitude":49.4945586,"longitude":-106.0277691,"name":"Maxstone","description":"Former hamlet","date":null},{"latitude":54.7835787,"longitude":-99.7779394,"name":"Herb Lake","description":"Former town; mining city collapsed in he 1970 jears","date":null},{"latitude":51.1658172,"longitude":12.1453053,"name":"Großgrimma (historisch)","description":"Former village; Wikipedia: de:Großgrimma","date":null},{"latitude":-30.2595715,"longitude":148.8319113,"name":"Bugilbone","description":"Former locality","date":null},{"latitude":-29.9480558,"longitude":148.2346413,"name":"Eurie Eurie","description":"Former locality","date":null},{"latitude":-29.6333826,"longitude":147.6691141,"name":"Grawin","description":"Former hamlet","date":null},{"latitude":-30.3483333,"longitude":148.6844444,"name":"Keelindi","description":"Former locality","date":null},{"latitude":-29.3571424,"longitude":148.6853785,"name":"Mogil Mogil","description":"Former locality","date":null},{"latitude":-34.3316667,"longitude":142.9344444,"name":"Koorakee","description":"Former locality; locality with name recorded by NSW GNB but name no longer in use","date":null},{"latitude":-30.6525516,"longitude":144.9407385,"name":"Winbar","description":"Former locality","date":null},{"latitude":-29.4052921,"longitude":149.9199804,"name":"Camurra","description":"Former locality","date":null},{"latitude":-29.0127182,"longitude":149.6562336,"name":"Four Mile Clump","description":"Former locality","date":null},{"latitude":-28.6797788,"longitude":149.5762552,"name":"Kunopia","description":"Former locality","date":null},{"latitude":-29.2594422,"longitude":149.7793091,"name":"Watervale Yards","description":"Former locality","date":null},{"latitude":-34.4728324,"longitude":145.6173945,"name":"Tocanmain","description":"Former locality","date":null},{"latitude":-29.815,"longitude":149.3344444,"name":"Bunna Bunna","description":"Former locality","date":null},{"latitude":-29.7975659,"longitude":149.2838565,"name":"Thalaba","description":"Former locality","date":null},{"latitude":-35.0615739,"longitude":147.2514772,"name":"Malebo","description":"Former village","date":null},{"latitude":-30.1756279,"longitude":146.4956488,"name":"Bogan","description":"Former locality","date":null},{"latitude":-33.7403806,"longitude":151.0406064,"name":"Smiths Hill","description":"Former locality","date":null},{"latitude":51.4059655,"longitude":30.0573963,"name":"Прип’ять","description":"Former town; Abandoned: yes; Former population: 0; Wikipedia: uk:Прип'ять (місто)","date":null,"abandoned_year":"yes"},{"latitude":39.5568244,"longitude":-123.0550051,"name":"Crocker Place","description":"Former hamlet","date":null},{"latitude":39.853764,"longitude":-123.4319628,"name":"Dunlap Place","description":"Former hamlet","date":null},{"latitude":39.7334885,"longitude":-123.3739039,"name":"Indian Springs","description":"Former hamlet; Wikipedia: en:Indian Springs, Mendocino County, California","date":null},{"latitude":39.8079316,"longitude":-123.4047392,"name":"Card Place","description":"Former hamlet","date":null},{"latitude":39.8459864,"longitude":-123.407795,"name":"Reyes Place","description":"Former hamlet","date":null},{"latitude":41.9629045,"longitude":-123.1053238,"name":"Eileen","description":"Former hamlet","date":null},{"latitude":41.2398947,"longitude":-120.5324537,"name":"D Flourney","description":"Former hamlet","date":null},{"latitude":41.1893359,"longitude":-120.8969101,"name":"Dibble Place","description":"Former hamlet","date":null},{"latitude":49.6863388,"longitude":9.4173655,"name":"Otterhof (Wüstung)","description":"Former isolated_dwelling; Abandoned: 1882","date":"1882-01-01","abandoned_year":"1882"},{"latitude":68.8719444,"longitude":-166.0902778,"name":"Wevok","description":"Former hamlet","date":null},{"latitude":55.0883918,"longitude":-162.0319,"name":"Belkofski Village","description":"Former village; Former population: 0; \"Aleut village reported in 1847 on Russian Hydrog. Dept. Chart 1379 as \"S[elo] Belkovskoe\" from \"belka,\" meaning \"squirrel.\" Dictionary of Alaska Place Names, Orth, 1971.","date":null},{"latitude":60.5401619,"longitude":-145.7559894,"name":"Meakerville","description":"Former hamlet","date":null},{"latitude":62.5211111,"longitude":-163.8433333,"name":"Fish Village","description":"Former hamlet","date":null},{"latitude":59.55,"longitude":-157.0833333,"name":"Elilakok","description":"Former locality","date":null},{"latitude":59.6333333,"longitude":-157.1333333,"name":"Akokpak","description":"Former locality","date":null},{"latitude":60.3328182,"longitude":-146.6604062,"name":"Nuchek","description":"Former hamlet","date":null},{"latitude":60.4441667,"longitude":-145.215833,"name":"Alaganik","description":"Former hamlet; Former population: 0","date":null},{"latitude":60.4847709,"longitude":-145.7291764,"name":"Crystal Falls","description":"Former hamlet","date":null},{"latitude":60.97,"longitude":-147.9861111,"name":"Golden","description":"Former hamlet","date":null},{"latitude":32.6325621,"longitude":-116.1797389,"name":"Titus","description":"Former hamlet","date":null},{"latitude":35.2047079,"longitude":-115.6516647,"name":"Rainbow Wells","description":"Former hamlet","date":null},{"latitude":47.9857343,"longitude":-121.393589,"name":"Monte Cristo","description":"Former village; Wikipedia: en:Monte Cristo, Washington","date":null},{"latitude":36.3624259,"longitude":-117.1068536,"name":"Harrisburg","description":"Former hamlet","date":null},{"latitude":38.1305044,"longitude":-117.458401,"name":"Millers","description":"Former hamlet; Former population: 0","date":null},{"latitude":35.5071779,"longitude":-118.3550809,"name":"Moreland Mill","description":"Former hamlet","date":null},{"latitude":33.3164215,"longitude":-114.664957,"name":"Cibola","description":"Former hamlet","date":null},{"latitude":32.9167103,"longitude":-114.9660788,"name":"Clyde","description":"Former hamlet","date":null},{"latitude":40.6355109,"longitude":-111.4146374,"name":"Unnamed Ghost Town","description":"Former hamlet","date":null},{"latitude":33.0822607,"longitude":-114.6871794,"name":"Nommel Place","description":"Former hamlet","date":null},{"latitude":33.8780735,"longitude":-114.7952436,"name":"Styx","description":"Former hamlet","date":null},{"latitude":32.8370959,"longitude":-117.2318727,"name":"Elvira","description":"Former locality","date":null},{"latitude":42.0268005,"longitude":-123.1474233,"name":"Copper","description":"Former hamlet","date":null},{"latitude":37.9463119,"longitude":-121.848567,"name":"Stewartville","description":"Former hamlet","date":null},{"latitude":33.0214302,"longitude":-115.1083059,"name":"Mesquite","description":"Former hamlet","date":null},{"latitude":37.2582627,"longitude":-117.324796,"name":"Old Camp","description":"Former isolated_dwelling","date":null},{"latitude":33.0711507,"longitude":-115.1846975,"name":"Acolita","description":"Former hamlet","date":null},{"latitude":34.0847732,"longitude":-114.8524242,"name":"Rice","description":"Former hamlet","date":null},{"latitude":46.6603853,"longitude":-119.4821441,"name":"White Bluffs","description":"Former village","date":null},{"latitude":47.6415597,"longitude":-122.2210441,"name":"Lucerne","description":"Former hamlet","date":null},{"latitude":37.9577004,"longitude":-121.880513,"name":"Nortonville","description":"Former hamlet","date":null},{"latitude":32.3278362,"longitude":-112.9468249,"name":"Chico Shunie","description":"Former hamlet; Wikipedia: en:Chico Shunie, Arizona","date":null},{"latitude":45.9717793,"longitude":-112.3585842,"name":"Pappas Place","description":"Former hamlet","date":null},{"latitude":33.365866,"longitude":-115.7227704,"name":"Pope","description":"Former hamlet","date":null},{"latitude":46.6728549,"longitude":-119.4637057,"name":"East White Bluffs","description":"Former hamlet","date":null},{"latitude":32.8580998,"longitude":-114.7891262,"name":"Obregon","description":"Former hamlet","date":null},{"latitude":48.7529504,"longitude":-120.7163652,"name":"Barron","description":"Former village; Abandoned: village","date":null,"abandoned_year":"village"},{"latitude":33.3152582,"longitude":-115.6028935,"name":"Wister","description":"Former hamlet","date":null},{"latitude":33.1180937,"longitude":-115.2558112,"name":"Amos","description":"Former hamlet","date":null},{"latitude":38.4595324,"longitude":-113.254466,"name":"Frisco","description":"Former hamlet","date":null},{"latitude":36.1794638,"longitude":-116.6166998,"name":"Greenwater","description":"Former hamlet","date":null},{"latitude":35.0472061,"longitude":-116.1655703,"name":"Crucero","description":"Former hamlet","date":null},{"latitude":39.9926641,"longitude":-111.4975473,"name":"Thistle","description":"Former locality","date":null},{"latitude":33.1764274,"longitude":-115.5085978,"name":"Estelle","description":"Former hamlet","date":null},{"latitude":32.8169898,"longitude":-114.8388505,"name":"Ogilby","description":"Former hamlet","date":null},{"latitude":37.9404787,"longitude":-121.812733,"name":"West Hartley","description":"Former hamlet","date":null},{"latitude":36.9038245,"longitude":-116.8288837,"name":"Rhyolite","description":"Former village; Wikipedia: en:Rhyolite, Nevada","date":null},{"latitude":46.5793709,"longitude":-119.3808693,"name":"Hanford","description":"Former village","date":null},{"latitude":37.9568671,"longitude":-121.864401,"name":"Somersville","description":"Former hamlet","date":null},{"latitude":47.4237636,"longitude":-121.6207895,"name":"Garcia","description":"Former village","date":null},{"latitude":37.359574,"longitude":-118.4596146,"name":"Oteys Sierra Village","description":"Former hamlet; Wikipedia: en:Oteys Sierra Village, California","date":null},{"latitude":32.8622668,"longitude":-114.896909,"name":"Cactus","description":"Former hamlet","date":null},{"latitude":37.0505046,"longitude":-119.7323698,"name":"Indian Springs","description":"Former hamlet; Wikipedia: en:Indian Springs, Madera County, California","date":null},{"latitude":47.386777,"longitude":-121.5337073,"name":"Bandera","description":"Former village","date":null},{"latitude":35.5757871,"longitude":-118.534531,"name":"Miracle Hot Springs","description":"Former hamlet","date":null},{"latitude":39.9033204,"longitude":-105.6444469,"name":"East Portal","description":"Former hamlet; Former population: 0","date":null},{"latitude":29.343569,"longitude":-98.5841857,"name":"Heafer","description":"Former hamlet","date":null},{"latitude":29.8329708,"longitude":-95.5038768,"name":"Lois","description":"Former hamlet","date":null},{"latitude":42.4488972,"longitude":-90.0515138,"name":"Millville Town Site","description":"Former hamlet","date":null},{"latitude":38.9649943,"longitude":-105.9275119,"name":"Haver","description":"Former hamlet","date":null},{"latitude":29.2631383,"longitude":-98.4908325,"name":"Earle","description":"Former hamlet","date":null},{"latitude":46.1091329,"longitude":-97.8681564,"name":"Nicholson","description":"Former hamlet; Former population: 0","date":null},{"latitude":46.043856,"longitude":-97.9001018,"name":"Straubville","description":"Former hamlet","date":null},{"latitude":40.8620571,"longitude":-96.794786,"name":"Huskerville","description":"Former neighbourhood","date":null},{"latitude":34.2678455,"longitude":-106.7300198,"name":"Gibbs Place","description":"Former isolated_dwelling","date":null},{"latitude":29.3502355,"longitude":-98.57863,"name":"Withers","description":"Former hamlet","date":null},{"latitude":46.1371889,"longitude":-97.9778794,"name":"Hample","description":"Former hamlet","date":null},{"latitude":29.3819011,"longitude":-98.5416848,"name":"Phoenix","description":"Former hamlet","date":null},{"latitude":29.536618,"longitude":-98.5386299,"name":"Robards","description":"Former hamlet","date":null},{"latitude":36.9843828,"longitude":-94.8310842,"name":"Picher","description":"Former town; Former population: 0; Wikipedia: en:Picher, Oklahoma","date":null},{"latitude":31.9139827,"longitude":-108.4328238,"name":"Old Hachita","description":"Former village; Abandoned: village; Wikipedia: en:Old Hachita, New Mexico","date":null,"abandoned_year":"village"},{"latitude":29.7296665,"longitude":-98.6558563,"name":"Van Raub","description":"Former hamlet","date":null},{"latitude":29.5154939,"longitude":-98.3978581,"name":"Fratt","description":"Former hamlet; Wikipedia: en:Fratt, Texas","date":null},{"latitude":36.5947511,"longitude":-105.450284,"name":"Twining","description":"Former hamlet","date":null},{"latitude":34.4053469,"longitude":-104.3035865,"name":"Agudo","description":"Former hamlet","date":null},{"latitude":30.0127163,"longitude":-94.7849222,"name":"Unnamed Ghost Town","description":"Former hamlet","date":null},{"latitude":38.8491609,"longitude":-105.788338,"name":"Unnamed Ghost Town","description":"Former hamlet","date":null},{"latitude":38.2300001,"longitude":-106.1972454,"name":"Spook City","description":"Former hamlet","date":null},{"latitude":39.7617014,"longitude":-87.8636413,"name":"Melwood","description":"Former hamlet","date":null},{"latitude":39.7744791,"longitude":-87.8911422,"name":"Hughes","description":"Former hamlet","date":null},{"latitude":39.7747585,"longitude":-87.5225199,"name":"Randall","description":"Former hamlet","date":null},{"latitude":39.6289237,"longitude":-87.7922511,"name":"Mays","description":"Former hamlet","date":null},{"latitude":39.6128127,"longitude":-87.9375332,"name":"Warrington","description":"Former hamlet","date":null},{"latitude":39.6105912,"longitude":-87.5002987,"name":"Easytown","description":"Former hamlet","date":null},{"latitude":39.7817032,"longitude":-87.4955747,"name":"Toronto","description":"Former hamlet","date":null},{"latitude":39.7183681,"longitude":-87.8114177,"name":"Garland","description":"Former hamlet","date":null},{"latitude":39.6764239,"longitude":-87.7053038,"name":"Harris","description":"Former hamlet","date":null},{"latitude":39.7061462,"longitude":-87.7061368,"name":"Wetzel","description":"Former hamlet","date":null},{"latitude":35.1723244,"longitude":-84.3954704,"name":"McFarland","description":"Former isolated_dwelling","date":null},{"latitude":42.2693486,"longitude":-83.6692836,"name":"Geddesburg","description":"Former hamlet","date":null},{"latitude":33.6945525,"longitude":-84.407427,"name":"Greenwood Trailer Park","description":"Former neighbourhood","date":null},{"latitude":40.0067309,"longitude":-83.0340734,"name":"Seagrave","description":"Former neighbourhood","date":null},{"latitude":34.9709295,"longitude":-82.9373664,"name":"Jocassee","description":"Former hamlet","date":null},{"latitude":43.6170142,"longitude":-75.6643526,"name":"Old Campbellwood Wye","description":"Former hamlet","date":null},{"latitude":44.1214528,"longitude":-75.5782592,"name":"Woods Mill","description":"Former hamlet","date":null},{"latitude":39.7359438,"longitude":-75.8671627,"name":"Springlawn","description":"Former hamlet","date":null},{"latitude":43.6153477,"longitude":-75.7171321,"name":"New Campbellwood Wye","description":"Former hamlet","date":null},{"latitude":43.4406256,"longitude":-75.9746406,"name":"Happy Valley","description":"Former hamlet","date":null},{"latitude":37.6273498,"longitude":-79.9983845,"name":"Lignite","description":"Former hamlet","date":null},{"latitude":39.6616009,"longitude":-74.5227967,"name":"Harrisville","description":"Former hamlet; Abandoned: 1914; Wikipedia: en:Harrisville, New Jersey","date":"1914-01-01","abandoned_year":"1914"},{"latitude":44.0506144,"longitude":-74.0509808,"name":"Tahawus","description":"Former hamlet; Abandoned: yes; Wikipedia: en:Tahawus, New York","date":null,"abandoned_year":"yes"},{"latitude":50.5800789,"longitude":6.4230538,"name":"Wollseifen (Wüstung)","description":"Former village; Wikipedia: de:Wollseifen","date":null},{"latitude":40.3785516,"longitude":-82.2411116,"name":"Zuck","description":"Former hamlet; Former population: 0; Wikipedia: en:Zuck, Ohio","date":null},{"latitude":-40.5834732,"longitude":-70.6329596,"name":"Paso Flores","description":"Former hamlet; Abandoned: hamlet; Wikipedia: es:Paso Flores; Viejo lugar donde estuvo Paso Flores","date":null,"abandoned_year":"hamlet"},{"latitude":-43.4850549,"longitude":-66.1399098,"name":"Campamento Villegas","description":"Former hamlet; Wikipedia: es:Campamento Villegas","date":null},{"latitude":51.1193165,"longitude":12.3919844,"name":"Heuersdorf","description":"Former village","date":null},{"latitude":50.7333562,"longitude":11.0833,"name":"Ilmtal","description":"Former hamlet; Former population: 4254","date":null},{"latitude":52.5119164,"longitude":23.4305496,"name":"Малая Апака","description":"Former hamlet; Wikipedia: be-tarask:Малая Апака","date":null},{"latitude":52.538665,"longitude":23.5291891,"name":"Сіпурка 1","description":"Former hamlet; Wikipedia: be:Сіпурка (вёска)","date":null},{"latitude":52.545397,"longitude":23.8583977,"name":"Лавы","description":"Former hamlet; Wikipedia: be-tarask:Лавы (Камянецкі раён)","date":null},{"latitude":52.5858,"longitude":23.77218,"name":"Яленскі-Бор","description":"Former hamlet","date":null},{"latitude":51.97889,"longitude":24.01371,"name":"Прыстань","description":"Former hamlet","date":null},{"latitude":51.6890096,"longitude":24.0502106,"name":"Цытылля","description":"Former hamlet","date":null},{"latitude":51.70123,"longitude":23.90059,"name":"Чамярынь","description":"Former hamlet","date":null},{"latitude":52.48401,"longitude":23.93329,"name":"Паўлюкоўшчына","description":"Former hamlet","date":null},{"latitude":52.5079322,"longitude":24.0547649,"name":"Цімахоўшчына","description":"Former hamlet; Wikipedia: be:Цімахоўшчына","date":null},{"latitude":52.21055,"longitude":24.16838,"name":"Кантынава","description":"Former hamlet","date":null},{"latitude":51.97503,"longitude":24.12263,"name":"Залессе","description":"Former hamlet","date":null},{"latitude":51.978279,"longitude":24.1403512,"name":"Баравая","description":"Former hamlet","date":null},{"latitude":53.233867,"longitude":24.0961546,"name":"Зборы","description":"Former hamlet; Wikipedia: be:Зборы; упразднена согласно Решению Волковысского районного Совета депутатов от 29 мая 2018 г. №13","date":null},{"latitude":53.289791,"longitude":24.114559,"name":"Яцкова","description":"Former hamlet; Wikipedia: be:Яцкова","date":null},{"latitude":52.6007624,"longitude":24.1611848,"name":"Юбілейны","description":"Former hamlet; Wikipedia: be:Юбілейны (Пружанскі раён)","date":null},{"latitude":52.7252593,"longitude":24.1775105,"name":"Калядзізна","description":"Former hamlet; Wikipedia: be:Калядзізна","date":null},{"latitude":52.74682,"longitude":24.15413,"name":"Рудаўка","description":"Former hamlet; Wikipedia: be:Рудаўка (Пружанскі раён)","date":null},{"latitude":51.9891,"longitude":24.26271,"name":"Струпы","description":"Former hamlet","date":null},{"latitude":52.48031,"longitude":24.2446,"name":"Падалессе","description":"Former hamlet; Wikipedia: be:Падалессе (Пружанскі раён)","date":null},{"latitude":52.8952428,"longitude":24.4038034,"name":"Баравікі","description":"Former hamlet; Wikipedia: be:Баравікі (Свіслацкі раён)","date":null},{"latitude":52.8555786,"longitude":24.4158631,"name":"Галава Балота","description":"Former hamlet","date":null},{"latitude":52.34745,"longitude":24.31043,"name":"Германы","description":"Former hamlet","date":null},{"latitude":52.58443,"longitude":24.55539,"name":"Стары Куплін","description":"Former hamlet","date":null},{"latitude":52.6842572,"longitude":24.435929,"name":"Кушлі","description":"Former hamlet; Wikipedia: be:Кушлі","date":null},{"latitude":52.3664517,"longitude":24.4533707,"name":"Плашчыны","description":"Former isolated_dwelling; Wikipedia: be:Плашчыны","date":null},{"latitude":52.39697,"longitude":24.48587,"name":"Паддубʼе","description":"Former hamlet","date":null},{"latitude":53.126358,"longitude":24.559624,"name":"Сегянеўшчына","description":"Former isolated_dwelling; Wikipedia: be:Сегянеўшчына (Ваўкавыскі раён)","date":null},{"latitude":52.3145979,"longitude":24.6192774,"name":"Смедына","description":"Former hamlet","date":null},{"latitude":52.293883,"longitude":24.7423565,"name":"Адрынка","description":"Former hamlet; Wikipedia: be:Адрынка","date":null},{"latitude":52.05691,"longitude":24.6789,"name":"Добрае","description":"Former hamlet; Wikipedia: be:Добрае (Кобрынскі раён)","date":null},{"latitude":53.684181,"longitude":24.463289,"name":"Зюкі","description":"Former isolated_dwelling; Wikipedia: be:Зюкі","date":null},{"latitude":53.8086503,"longitude":24.6413102,"name":"Занявіша","description":"Former isolated_dwelling; Wikipedia: be:Занявіша","date":null},{"latitude":53.7555538,"longitude":24.6131534,"name":"Савічы","description":"Former isolated_dwelling; Wikipedia: be:Савічы (Васілішкаўскі сельсавет)","date":null},{"latitude":52.50727,"longitude":24.7431,"name":"Равейкі","description":"Former hamlet","date":null},{"latitude":53.0145898,"longitude":24.7198482,"name":"Юнкаўшчына","description":"Former hamlet; Wikipedia: be:Юнкаўшчына","date":null},{"latitude":52.85171,"longitude":25.0508,"name":"Нікіцічы","description":"Former isolated_dwelling; Wikipedia: be:Мікіцічы","date":null},{"latitude":53.09872,"longitude":25.01158,"name":"Гумнішча","description":"Former hamlet","date":null},{"latitude":54.0963346,"longitude":24.86717,"name":"Гатуўка","description":"Former hamlet; Wikipedia: be:Гатуўка","date":null},{"latitude":54.101543,"longitude":24.862846,"name":"Постаўкі","description":"Former hamlet; Wikipedia: be:Постаўкі","date":null},{"latitude":54.0900992,"longitude":24.8238481,"name":"Пузелі","description":"Former isolated_dwelling; Wikipedia: be:Пузелі","date":null},{"latitude":52.11365,"longitude":25.15732,"name":"Залаўе","description":"Former hamlet; Wikipedia: be:Залаўе (Драгічынскі раён)","date":null},{"latitude":52.8942777,"longitude":25.2167557,"name":"Кісялі","description":"Former hamlet; Wikipedia: be:Кісялі (Слонімскі раён)","date":null},{"latitude":52.8672902,"longitude":25.2099969,"name":"Прадзелкі","description":"Former hamlet; Wikipedia: be:Прадзелкі","date":null},{"latitude":52.63515,"longitude":25.28117,"name":"Зацішша","description":"Former hamlet","date":null},{"latitude":53.5350176,"longitude":25.1300529,"name":"Красачкі","description":"Former hamlet; Abandoned: 1986","date":"1986-01-01","abandoned_year":"1986"},{"latitude":53.7229,"longitude":25.076,"name":"Губейкі","description":"Former hamlet; Abandoned: 1986","date":"1986-01-01","abandoned_year":"1986"},{"latitude":53.9883,"longitude":25.176,"name":"Малыя Рэксці","description":"Former hamlet; Abandoned: 1986","date":"1986-01-01","abandoned_year":"1986"},{"latitude":53.746038,"longitude":25.149092,"name":"Пяскі","description":"Former hamlet; Abandoned: 1986","date":"1986-01-01","abandoned_year":"1986"},{"latitude":53.65456,"longitude":25.17963,"name":"Пішчоўцы","description":"Former hamlet; Wikipedia: be:Пішчоўцы","date":null},{"latitude":53.3268448,"longitude":25.1560719,"name":"Смаляная Печ","description":"Former hamlet; Wikipedia: be:Смаляная Печ","date":null},{"latitude":53.82537,"longitude":25.43987,"name":"Боркі","description":"Former hamlet; Abandoned: 1990s","date":null,"abandoned_year":"1990s"},{"latitude":52.91865,"longitude":25.45455,"name":"Дубіно","description":"Former hamlet","date":null},{"latitude":52.84716,"longitude":25.35301,"name":"Маціеўка","description":"Former hamlet","date":null},{"latitude":53.38806,"longitude":25.66286,"name":"Завонь","description":"Former hamlet","date":null},{"latitude":52.99908,"longitude":25.83512,"name":"Гусенцы","description":"Former hamlet","date":null},{"latitude":52.8665623,"longitude":25.6822138,"name":"Грудапаль","description":"Former hamlet","date":null},{"latitude":54.321373,"longitude":25.5640122,"name":"Бікяны","description":"Former hamlet; Wikipedia: be:Бікяны","date":null},{"latitude":54.338638,"longitude":25.556089,"name":"Лукшаны","description":"Former hamlet; Wikipedia: be:Лукшаны","date":null},{"latitude":54.02836,"longitude":25.64647,"name":"Скробніца","description":"Former hamlet","date":null},{"latitude":53.33141,"longitude":25.86954,"name":"Пяркоўшчына","description":"Former hamlet","date":null},{"latitude":53.7877084,"longitude":25.9295836,"name":"Хахлова","description":"Former hamlet","date":null},{"latitude":54.23143,"longitude":25.81856,"name":"Віктарына","description":"Former hamlet","date":null},{"latitude":54.34773,"longitude":25.77367,"name":"Мазуроўшчына","description":"Former hamlet","date":null},{"latitude":54.3476085,"longitude":25.7257153,"name":"Андрэйкішкі","description":"Former isolated_dwelling; Wikipedia: be:Андрэйкішкі","date":null},{"latitude":54.80307,"longitude":25.7456,"name":"Санова","description":"Former isolated_dwelling; Wikipedia: be:Санова","date":null},{"latitude":54.7231814,"longitude":25.7807792,"name":"Асінаўка","description":"Former isolated_dwelling; Wikipedia: be:Асіноўка","date":null},{"latitude":52.0178788,"longitude":25.8747364,"name":"Горыца","description":"Former hamlet","date":null},{"latitude":54.53038,"longitude":25.82637,"name":"Навасяды","description":"Former isolated_dwelling; Wikipedia: be:Навасяды (Каменналогскі сельсавет)","date":null},{"latitude":54.522141,"longitude":25.80431,"name":"Ясянёва","description":"Former isolated_dwelling; Wikipedia: be:Ясянёва","date":null},{"latitude":54.5097503,"longitude":25.8077478,"name":"Дукелі","description":"Former isolated_dwelling; Wikipedia: be:Дукелі (Ашмянскі раён)","date":null},{"latitude":52.96157,"longitude":26.09656,"name":"Крывое Сяло","description":"Former hamlet; Wikipedia: be:Крывое Сяло (Ляхавіцкі раён)","date":null},{"latitude":53.32352,"longitude":26.19312,"name":"Росаш","description":"Former isolated_dwelling; Wikipedia: be:Росаш (Баранавіцкі раён)","date":null},{"latitude":54.56634,"longitude":26.017,"name":"Пранюны","description":"Former hamlet","date":null},{"latitude":54.61767,"longitude":26.0212,"name":"Міклі","description":"Former hamlet; Wikipedia: be:Міклі","date":null},{"latitude":54.89645,"longitude":25.89426,"name":"Маліняк","description":"Former hamlet","date":null},{"latitude":54.9348965,"longitude":25.983464,"name":"Стражніца","description":"Former hamlet","date":null},{"latitude":54.94717,"longitude":25.98773,"name":"Забелішкі","description":"Former isolated_dwelling","date":null},{"latitude":54.93147,"longitude":25.97245,"name":"Падборʼе","description":"Former isolated_dwelling; Wikipedia: be:Падбор’е (Астравецкі раён)","date":null},{"latitude":53.4116843,"longitude":26.3564853,"name":"Засценкі","description":"Former hamlet; Wikipedia: be:Засценкі (Карэліцкі раён)","date":null},{"latitude":53.16327,"longitude":26.35002,"name":"Гелавічы","description":"Former hamlet","date":null},{"latitude":53.1277496,"longitude":26.3197803,"name":"Пірштукі","description":"Former hamlet; Wikipedia: be:Пірштукі","date":null},{"latitude":53.0472425,"longitude":26.250781,"name":"Вялікая Лотва","description":"Former hamlet; Wikipedia: be:Вялікая Лотва (Ляхавіцкі раён)","date":null},{"latitude":52.9173928,"longitude":26.3562704,"name":"Куляні","description":"Former hamlet; Wikipedia: be:Куляні","date":null},{"latitude":52.50418,"longitude":26.2811,"name":"Мальня","description":"Former hamlet","date":null},{"latitude":54.0462002,"longitude":26.272166,"name":"Улавіна","description":"Former isolated_dwelling","date":null},{"latitude":54.444576,"longitude":26.065487,"name":"Якелеўшчына","description":"Former hamlet; Wikipedia: be:Якелеўшчына","date":null},{"latitude":54.439739,"longitude":26.067551,"name":"Забарцы","description":"Former hamlet; Wikipedia: be:Забарцы","date":null},{"latitude":54.3072162,"longitude":26.0387712,"name":"Курган","description":"Former hamlet; Wikipedia: be:Курган (Ашмянскі раён)","date":null},{"latitude":54.3189129,"longitude":26.05209,"name":"Шапавалы","description":"Former hamlet; Wikipedia: be:Шапавалы (Ашмянскі раён)","date":null},{"latitude":54.3245959,"longitude":26.0753188,"name":"Дайнаполе","description":"Former hamlet","date":null},{"latitude":54.83079,"longitude":26.12,"name":"Раўданішкі","description":"Former hamlet","date":null},{"latitude":54.66239,"longitude":26.03949,"name":"Дамоўка","description":"Former hamlet","date":null},{"latitude":53.617041,"longitude":26.4544434,"name":"Буды","description":"Former hamlet","date":null},{"latitude":53.4848157,"longitude":26.4743092,"name":"Звярынец","description":"Former hamlet","date":null},{"latitude":54.99258,"longitude":26.248739,"name":"Вердашышкі","description":"Former hamlet; Wikipedia: be:Вердашышкі","date":null},{"latitude":54.971378,"longitude":26.34058,"name":"Куцішкі","description":"Former hamlet; Wikipedia: be:Куцішкі (Пастаўскі раён)","date":null},{"latitude":54.5745779,"longitude":26.3320189,"name":"Траснікі","description":"Former hamlet","date":null},{"latitude":54.66136,"longitude":26.24479,"name":"Палёўка","description":"Former hamlet","date":null},{"latitude":52.8275752,"longitude":26.482923,"name":"Дубнякі","description":"Former hamlet; Wikipedia: be:Дубнякі (Ганцавіцкі раён)","date":null},{"latitude":53.10422,"longitude":26.41989,"name":"Астрэйкі","description":"Former hamlet","date":null},{"latitude":55.14064,"longitude":26.338261,"name":"Выгары","description":"Former hamlet; Wikipedia: be:Выгары","date":null},{"latitude":55.11892,"longitude":26.34642,"name":"Цырклішкі Вялікія","description":"Former isolated_dwelling; Wikipedia: be:Цырклішкі Вялікія","date":null},{"latitude":55.130508,"longitude":26.31612,"name":"Высокія","description":"Former hamlet; Wikipedia: be:Высокія (Пастаўскі раён)","date":null},{"latitude":54.984524,"longitude":26.679264,"name":"Бядункі","description":"Former hamlet; Wikipedia: be:Бядункі","date":null},{"latitude":54.9977662,"longitude":26.6853125,"name":"Дашкі Малыя","description":"Former hamlet; Wikipedia: be:Дашкі Малыя","date":null},{"latitude":54.00724,"longitude":26.7051,"name":"Родзькі","description":"Former hamlet","date":null},{"latitude":53.15769,"longitude":26.60829,"name":"Надзея","description":"Former hamlet; Wikipedia: be:Надзея (Нясвіжскі раён)","date":null},{"latitude":53.16464,"longitude":26.6191,"name":"Стары Свіцязь","description":"Former hamlet","date":null},{"latitude":55.0734156,"longitude":26.4574633,"name":"Віршалы","description":"Former hamlet; Wikipedia: be:Віршалы","date":null},{"latitude":55.0737557,"longitude":26.4839993,"name":"Клянтакі","description":"Former hamlet; Wikipedia: pl:Klętaki","date":null},{"latitude":55.0551122,"longitude":26.4071768,"name":"Вікторына","description":"Former hamlet","date":null},{"latitude":55.0623384,"longitude":26.4644032,"name":"Паўкштэлы","description":"Former hamlet","date":null},{"latitude":55.0452,"longitude":26.456711,"name":"Жардэлі","description":"Former hamlet; Wikipedia: be:Жардэлі","date":null},{"latitude":54.96623,"longitude":26.48795,"name":"Чырвоны Ручай","description":"Former hamlet; Wikipedia: be:Чырвоны Ручай","date":null},{"latitude":55.353409,"longitude":26.56769,"name":"Абалі","description":"Former hamlet; Wikipedia: be:Абалі","date":null},{"latitude":55.407398,"longitude":26.5688,"name":"Трабшышкі","description":"Former isolated_dwelling; Wikipedia: be:Трабшышкі","date":null},{"latitude":52.6968228,"longitude":26.80488,"name":"Бабовішча","description":"Former hamlet","date":null},{"latitude":53.07606,"longitude":26.92543,"name":"Абразцова","description":"Former hamlet","date":null},{"latitude":53.0862554,"longitude":26.855044,"name":"Савічыкі","description":"Former hamlet","date":null},{"latitude":53.2068653,"longitude":26.8746657,"name":"Пнівада","description":"Former hamlet; Wikipedia: be:Пнівада","date":null},{"latitude":55.0453152,"longitude":26.6916148,"name":"Лявонкі","description":"Former hamlet; Wikipedia: be:Лявонкі","date":null},{"latitude":55.058929,"longitude":26.70133,"name":"Васточная","description":"Former hamlet; Wikipedia: be:Васточная","date":null},{"latitude":55.0064748,"longitude":26.5901601,"name":"Русакі","description":"Former hamlet; Wikipedia: be:Русакі (Лынтупскі сельсавет)","date":null},{"latitude":55.1944811,"longitude":26.6913291,"name":"Галатыльцы","description":"Former hamlet; Wikipedia: pl:Poddębce (rejon postawski)","date":null},{"latitude":55.5080521,"longitude":26.6904936,"name":"Рудзі","description":"Former hamlet; Wikipedia: be:Рудзі (Браслаўскі раён)","date":null},{"latitude":55.517181,"longitude":26.726299,"name":"Трабшы","description":"Former hamlet; Wikipedia: be:Трабшы","date":null},{"latitude":55.4664089,"longitude":26.5941928,"name":"Аўгустова","description":"Former hamlet","date":null},{"latitude":55.4240086,"longitude":26.7050097,"name":"Цвярʼянцы","description":"Former hamlet","date":null},{"latitude":55.37942,"longitude":26.60065,"name":"Бамейкі","description":"Former hamlet","date":null},{"latitude":55.424141,"longitude":26.66905,"name":"Паўлаўка","description":"Former isolated_dwelling; Wikipedia: be:Паўлаўка (Браслаўскі раён)","date":null},{"latitude":55.62584,"longitude":26.7118,"name":"Дэмінішкі","description":"Former hamlet","date":null},{"latitude":55.6994949,"longitude":26.6638944,"name":"Скарбаты","description":"Former hamlet","date":null},{"latitude":55.6253386,"longitude":26.7495004,"name":"Жвірына","description":"Former hamlet","date":null},{"latitude":55.642675,"longitude":26.7278449,"name":"Рычаны","description":"Former hamlet; Wikipedia: be:Рычаны","date":null},{"latitude":55.6439439,"longitude":26.6436892,"name":"Мялка","description":"Former hamlet; Wikipedia: be:Мялка (Браслаўскі раён)","date":null},{"latitude":52.29252,"longitude":27.08405,"name":"Купаўшчына","description":"Former hamlet; Wikipedia: be:Купаўшчына","date":null},{"latitude":52.28153,"longitude":27.04001,"name":"Урэчча","description":"Former hamlet; Wikipedia: be:Урэчча (Лунінецкі раён)","date":null},{"latitude":51.79324,"longitude":27.00371,"name":"Альманскія Калінікі","description":"Former hamlet","date":null},{"latitude":55.66515,"longitude":26.77025,"name":"Каліты","description":"Former hamlet; Wikipedia: be:Каліты (Браслаўскі раён)","date":null},{"latitude":55.67047,"longitude":26.78561,"name":"Антасіто","description":"Former hamlet","date":null},{"latitude":55.623428,"longitude":26.79583,"name":"Сарокіна","description":"Former isolated_dwelling; Wikipedia: be:Сарокіна (Браслаўскі раён)","date":null},{"latitude":55.4638458,"longitude":26.8230342,"name":"Белевічы","description":"Former hamlet; Wikipedia: be:Белевічы (Браслаўскі раён)","date":null},{"latitude":55.52979,"longitude":26.88286,"name":"Маркулёва","description":"Former hamlet; Wikipedia: be:Маркулёва","date":null},{"latitude":55.4221267,"longitude":26.820804,"name":"Новая Лука","description":"Former isolated_dwelling; Wikipedia: be:Новая Лука","date":null},{"latitude":55.2638239,"longitude":26.8319155,"name":"Ракіты","description":"Former hamlet","date":null},{"latitude":55.2582163,"longitude":26.8514549,"name":"Каскі Вялікія","description":"Former hamlet","date":null},{"latitude":55.12133,"longitude":26.768789,"name":"Новы Двор","description":"Former hamlet; Wikipedia: be:Новы Двор (Пастаўскі раён)","date":null},{"latitude":55.014549,"longitude":26.818399,"name":"Гарані","description":"Former hamlet; Wikipedia: be:Гарані (Мядзельскі раён)","date":null},{"latitude":54.9734055,"longitude":26.9246185,"name":"Воргі","description":"Former hamlet; Wikipedia: be:Воргі","date":null},{"latitude":54.9725017,"longitude":26.801377,"name":"Белаўшчына","description":"Former hamlet; Wikipedia: be:Белаўшчына","date":null},{"latitude":54.98897,"longitude":26.80209,"name":"Ставішава","description":"Former hamlet","date":null},{"latitude":55.8016451,"longitude":27.006198,"name":"Чыжэўнікі","description":"Former hamlet; Wikipedia: be:Чыжэўнікі","date":null},{"latitude":55.4975662,"longitude":26.9810285,"name":"Новадварышча","description":"Former hamlet; Wikipedia: be:Новадварышча","date":null},{"latitude":55.71347,"longitude":26.976761,"name":"Шавялішкі","description":"Former hamlet; Wikipedia: be:Шавялішкі","date":null},{"latitude":55.713184,"longitude":26.944805,"name":"Свілюкі","description":"Former isolated_dwelling; Wikipedia: be:Свілюкі","date":null},{"latitude":55.6670998,"longitude":26.9804896,"name":"Пустошка","description":"Former isolated_dwelling; Wikipedia: be:Пустошка (Браслаўскі раён)","date":null},{"latitude":55.725876,"longitude":26.985931,"name":"Дзерукі","description":"Former hamlet; Wikipedia: be:Дзерукі","date":null},{"latitude":55.7360208,"longitude":26.9383436,"name":"Марцінішкі","description":"Former hamlet; Wikipedia: be:Марцінішкі","date":null},{"latitude":55.76368,"longitude":26.97865,"name":"Альшанка","description":"Former hamlet","date":null},{"latitude":55.168098,"longitude":26.951441,"name":"Тарасаўка","description":"Former hamlet; Wikipedia: be:Тарасаўка (Пастаўскі раён)","date":null},{"latitude":55.1631702,"longitude":26.9666861,"name":"Ліпаўка","description":"Former hamlet; Wikipedia: be:Ліпаўка (Пастаўскі раён)","date":null},{"latitude":55.0934732,"longitude":26.963564,"name":"Курылавічы","description":"Former hamlet; Wikipedia: be:Курылавічы (Юнькаўскі сельсавет)","date":null},{"latitude":55.276554,"longitude":26.980852,"name":"Чарэмушнікі Падзісенныя","description":"Former hamlet; Wikipedia: be:Чарэмушнікі Падзісенныя","date":null},{"latitude":55.3155968,"longitude":27.101181,"name":"Слабада","description":"Former hamlet","date":null},{"latitude":55.188961,"longitude":27.01984,"name":"Крывы Мост","description":"Former hamlet; Wikipedia: be:Крывы Мост","date":null},{"latitude":55.2266235,"longitude":27.0401311,"name":"Старыца","description":"Former hamlet; Wikipedia: be:Старыца (Пастаўскі раён)","date":null},{"latitude":55.21883,"longitude":27.053829,"name":"Шылаватае","description":"Former hamlet; Wikipedia: be:Шылаватае","date":null},{"latitude":54.9284907,"longitude":27.0507349,"name":"Вайцяхова","description":"Former hamlet; Wikipedia: be:Вайцяхова (Мядзельскі раён)","date":null},{"latitude":54.9862974,"longitude":26.9490892,"name":"Зані","description":"Former hamlet","date":null},{"latitude":54.7113416,"longitude":27.0588793,"name":"Азяроды","description":"Former hamlet; Wikipedia: be:Азяроды","date":null},{"latitude":54.20105,"longitude":27.00937,"name":"Вайцяшы","description":"Former hamlet","date":null},{"latitude":53.1530322,"longitude":27.4263684,"name":"Красная Горка","description":"Former hamlet; Wikipedia: be:Красная Горка (Капыльскі раён)","date":null},{"latitude":55.841961,"longitude":27.153311,"name":"Думарышкі 4","description":"Former isolated_dwelling; Wikipedia: be:Думарышкі 4","date":null},{"latitude":52.1943715,"longitude":27.3185761,"name":"Ваган","description":"Former hamlet; Wikipedia: be:Ваган","date":null},{"latitude":54.7616273,"longitude":27.4632621,"name":"Навіна","description":"Former hamlet","date":null},{"latitude":54.6426597,"longitude":27.3735391,"name":"Задорынка","description":"Former hamlet","date":null},{"latitude":54.6416778,"longitude":27.4110631,"name":"Мягчылы","description":"Former hamlet","date":null},{"latitude":54.33194,"longitude":27.21846,"name":"Фенева-Пеньчукі","description":"Former hamlet","date":null},{"latitude":54.5454984,"longitude":27.2811662,"name":"Сутокі","description":"Former hamlet","date":null},{"latitude":55.04648,"longitude":27.12773,"name":"Зенькава","description":"Former hamlet","date":null},{"latitude":55.08682,"longitude":27.19202,"name":"Пяшчакі","description":"Former hamlet","date":null},{"latitude":55.0403,"longitude":27.25082,"name":"Міхаліна","description":"Former hamlet; Wikipedia: ru:Михалина (Поставский район)","date":null},{"latitude":55.0375958,"longitude":27.1167787,"name":"Каменка","description":"Former isolated_dwelling; Wikipedia: be:Каменка (Пастаўскі раён)","date":null},{"latitude":55.11103,"longitude":27.17528,"name":"Карабаніха","description":"Former hamlet","date":null},{"latitude":54.636085,"longitude":27.202939,"name":"Гарбачэва","description":"Former hamlet; Wikipedia: be:Гарбачэва (Вілейскі раён)","date":null},{"latitude":54.889839,"longitude":27.16069,"name":"Чарвячова","description":"Former hamlet; Wikipedia: be:Чарвячова","date":null},{"latitude":55.55417,"longitude":27.20541,"name":"Хлебаўшчына","description":"Former hamlet","date":null},{"latitude":55.54756,"longitude":27.2006,"name":"Шаколеўшчына","description":"Former hamlet","date":null},{"latitude":55.5895225,"longitude":27.186753,"name":"Мелеўцы","description":"Former hamlet; Wikipedia: be:Мелеўцы","date":null},{"latitude":55.65236,"longitude":27.22378,"name":"Лазовікі","description":"Former hamlet","date":null},{"latitude":55.293892,"longitude":27.234421,"name":"Невядомшчына","description":"Former isolated_dwelling; Wikipedia: be:Невядомшчына","date":null},{"latitude":55.2441218,"longitude":27.2219395,"name":"Трумпічы","description":"Former hamlet; Wikipedia: be:Трумпічы","date":null},{"latitude":55.46748,"longitude":27.27322,"name":"Пажардзе","description":"Former isolated_dwelling; Wikipedia: be:Пажардзе","date":null},{"latitude":55.4537368,"longitude":27.2850841,"name":"Гізаўшчына","description":"Former isolated_dwelling; Wikipedia: be:Гізаўшчына","date":null},{"latitude":55.501381,"longitude":27.178631,"name":"Кіслаўшчына","description":"Former hamlet; Wikipedia: be:Кіслаўшчына (Браслаўскі раён)","date":null},{"latitude":55.5202308,"longitude":27.1788298,"name":"Рукшы","description":"Former hamlet; Wikipedia: be:Рукшы","date":null},{"latitude":55.381679,"longitude":27.2749242,"name":"Дубнікі","description":"Former hamlet; Wikipedia: be:Дубнікі (Шаркаўшчынскі раён)","date":null},{"latitude":55.43864,"longitude":27.20472,"name":"Яцелеўшчына","description":"Former hamlet; Wikipedia: be:Яцелеўшчына","date":null},{"latitude":54.6879419,"longitude":27.5477004,"name":"Румянскія","description":"Former isolated_dwelling; Wikipedia: be:Румянскія","date":null},{"latitude":54.724382,"longitude":27.6030718,"name":"Сіўцы","description":"Former hamlet; Wikipedia: be:Сіўцы (Даўгінаўскі сельсавет)","date":null},{"latitude":54.6751429,"longitude":27.5606232,"name":"Пажарніца","description":"Former hamlet; Wikipedia: be:Пажарніца (Вілейскі раён)","date":null},{"latitude":54.7256426,"longitude":27.606297,"name":"Кутнае","description":"Former isolated_dwelling; Wikipedia: be:Кутнае","date":null},{"latitude":54.82135,"longitude":27.5168,"name":"Ракаўшчына","description":"Former hamlet","date":null},{"latitude":54.7414562,"longitude":27.5209148,"name":"Зосіна","description":"Former hamlet; Wikipedia: be:Зосіна (Вілейскі раён)","date":null},{"latitude":54.961181,"longitude":27.5805334,"name":"Вянюціна 2","description":"Former hamlet","date":null},{"latitude":55.23608,"longitude":27.55097,"name":"Галубы","description":"Former hamlet","date":null},{"latitude":55.3318926,"longitude":27.512933,"name":"Скураты","description":"Former hamlet","date":null},{"latitude":55.33453,"longitude":27.5053,"name":"Вусце","description":"Former hamlet","date":null},{"latitude":55.1071384,"longitude":27.4822493,"name":"Гусакова","description":"Former hamlet; Wikipedia: be:Гусакова","date":null},{"latitude":55.1680139,"longitude":27.5833546,"name":"Валынь","description":"Former hamlet; Wikipedia: be:Валынь (Глыбоцкі раён)","date":null},{"latitude":55.61374,"longitude":27.51861,"name":"Падліпкі","description":"Former hamlet","date":null},{"latitude":55.4506953,"longitude":27.6464917,"name":"Брылёк","description":"Former hamlet","date":null},{"latitude":55.51623,"longitude":27.5453446,"name":"Бабоўшчына","description":"Former hamlet","date":null},{"latitude":55.5071305,"longitude":27.537503,"name":"Зацішша","description":"Former hamlet","date":null},{"latitude":55.4953773,"longitude":27.5308783,"name":"Купчалёва","description":"Former hamlet; Wikipedia: be:Купчалёва","date":null},{"latitude":55.5010157,"longitude":27.5264009,"name":"Зоры","description":"Former hamlet","date":null},{"latitude":55.51898,"longitude":27.47895,"name":"Калеснікі","description":"Former hamlet","date":null},{"latitude":55.42465,"longitude":27.51595,"name":"Багута","description":"Former hamlet","date":null},{"latitude":55.7311248,"longitude":27.642705,"name":"Якужы","description":"Former hamlet; Wikipedia: be:Якужы","date":null},{"latitude":55.754098,"longitude":27.6325781,"name":"Міжрэчча","description":"Former hamlet; Wikipedia: be:Міжрэчча (Мёрскі раён)","date":null},{"latitude":55.7675425,"longitude":27.5121295,"name":"Савуці","description":"Former hamlet; Wikipedia: be:Савуці","date":null},{"latitude":55.7450991,"longitude":27.4930497,"name":"Канапляншчына","description":"Former hamlet; Wikipedia: be:Канапляншчына","date":null},{"latitude":55.6489858,"longitude":27.58221,"name":"Жукі","description":"Former hamlet","date":null},{"latitude":55.6084579,"longitude":27.5025484,"name":"Ніўкі","description":"Former hamlet","date":null},{"latitude":52.73875,"longitude":27.79824,"name":"Папарыха","description":"Former hamlet","date":null},{"latitude":54.9965103,"longitude":27.3937296,"name":"Глінскія","description":"Former hamlet; Wikipedia: be:Глінскія (Пастаўскі раён)","date":null},{"latitude":55.05009,"longitude":27.46033,"name":"Запаляны","description":"Former hamlet","date":null},{"latitude":55.04159,"longitude":27.43861,"name":"Турчына","description":"Former hamlet","date":null},{"latitude":55.0574152,"longitude":27.3430772,"name":"Гіненкі","description":"Former hamlet","date":null},{"latitude":55.27462,"longitude":27.409,"name":"Станіславова","description":"Former hamlet","date":null},{"latitude":55.26209,"longitude":27.44539,"name":"Рабертава","description":"Former hamlet","date":null},{"latitude":55.23394,"longitude":27.34737,"name":"Масты","description":"Former hamlet; Wikipedia: be:Масты (Пастаўскі раён)","date":null},{"latitude":55.25119,"longitude":27.42625,"name":"Белазоры","description":"Former hamlet","date":null},{"latitude":55.3234545,"longitude":27.371273,"name":"Малонка-Казлоўская","description":"Former isolated_dwelling","date":null},{"latitude":55.4150461,"longitude":27.3355755,"name":"Жытаполле","description":"Former hamlet","date":null},{"latitude":55.4322753,"longitude":27.3750777,"name":"Бяседнае","description":"Former isolated_dwelling; Wikipedia: be:Бяседнае","date":null},{"latitude":55.52018,"longitude":27.38428,"name":"Пушалаты","description":"Former hamlet","date":null},{"latitude":55.49847,"longitude":27.36231,"name":"Мітэлі","description":"Former hamlet","date":null},{"latitude":55.4965072,"longitude":27.4356273,"name":"Дубоўка","description":"Former hamlet; Wikipedia: be:Дубоўка (Більдзюгскі сельсавет)","date":null},{"latitude":55.51374,"longitude":27.45174,"name":"Радзівонаўшчына","description":"Former hamlet","date":null},{"latitude":55.4993883,"longitude":27.4497645,"name":"Змітракі","description":"Former isolated_dwelling; Wikipedia: be:Змітракі","date":null},{"latitude":55.5267304,"longitude":27.3950134,"name":"Дварышча","description":"Former hamlet; Wikipedia: be:Дварышча (Мёрскі раён)","date":null},{"latitude":55.54112,"longitude":27.31158,"name":"Змітры","description":"Former hamlet","date":null},{"latitude":55.54593,"longitude":27.4587,"name":"Бертаўшчына","description":"Former hamlet; Wikipedia: pl:Bertowszczyzna","date":null},{"latitude":55.71433,"longitude":27.35304,"name":"Пілюшоўшчына","description":"Former hamlet","date":null},{"latitude":55.7148924,"longitude":27.3205076,"name":"Відайцы","description":"Former hamlet","date":null},{"latitude":55.808208,"longitude":27.356304,"name":"Федарынкі","description":"Former isolated_dwelling; Wikipedia: be:Федарынкі","date":null},{"latitude":55.759472,"longitude":27.46805,"name":"Залессе","description":"Former hamlet; Wikipedia: be:Залессе (Друеўскі сельсавет)","date":null},{"latitude":55.79372,"longitude":27.33982,"name":"Балюі","description":"Former hamlet","date":null},{"latitude":55.75355,"longitude":27.3315,"name":"Пунькі","description":"Former hamlet","date":null},{"latitude":53.1260833,"longitude":27.6282966,"name":"Хваёвіца","description":"Former hamlet","date":null},{"latitude":53.3031374,"longitude":28.0009282,"name":"Гнезднае","description":"Former hamlet; Wikipedia: be:Гнезднае","date":null},{"latitude":53.0492761,"longitude":27.8365152,"name":"Аступішча","description":"Former hamlet","date":null},{"latitude":52.75429,"longitude":27.95849,"name":"Клянок","description":"Former hamlet","date":null},{"latitude":51.8129687,"longitude":27.8798525,"name":"Люболь","description":"Former hamlet; Wikipedia: be:Люболь","date":null},{"latitude":55.87681,"longitude":27.81773,"name":"Крэўнікі","description":"Former hamlet","date":null},{"latitude":55.8089928,"longitude":27.8274878,"name":"Старое Грудзінава","description":"Former hamlet; Wikipedia: be:Старое Грудзінава","date":null},{"latitude":55.7975398,"longitude":27.8116136,"name":"Новае Грудзінава","description":"Former hamlet","date":null},{"latitude":55.83552,"longitude":27.7101,"name":"Барэйкі","description":"Former isolated_dwelling; Wikipedia: be:Барэйкі (Верхнядзвінскі раён)","date":null},{"latitude":55.85011,"longitude":27.76348,"name":"Вароны","description":"Former hamlet","date":null},{"latitude":55.92564,"longitude":27.7313,"name":"Бандэлі","description":"Former hamlet","date":null},{"latitude":55.8868139,"longitude":27.7198207,"name":"Спругі","description":"Former hamlet; Wikipedia: be:Спругі","date":null},{"latitude":55.8791985,"longitude":27.7059434,"name":"Сумкі","description":"Former hamlet; Wikipedia: be:Сумкі","date":null},{"latitude":55.80669,"longitude":27.69859,"name":"Кусты","description":"Former hamlet","date":null},{"latitude":55.8340505,"longitude":27.7803122,"name":"Паноры","description":"Former hamlet","date":null},{"latitude":54.9130681,"longitude":27.9679467,"name":"Туроўшчына","description":"Former hamlet; Wikipedia: be:Туроўшчына","date":null},{"latitude":55.0771564,"longitude":27.9531435,"name":"Пунішча","description":"Former hamlet","date":null},{"latitude":55.0447102,"longitude":27.913114,"name":"Крупені","description":"Former isolated_dwelling; Wikipedia: be:Крупені","date":null},{"latitude":55.0634212,"longitude":27.9183879,"name":"Альхімаўшчына","description":"Former isolated_dwelling; Wikipedia: be:Альхімаўшчына","date":null},{"latitude":54.7378703,"longitude":27.9725246,"name":"Дубавік","description":"Former hamlet; Wikipedia: be:Дубавік","date":null},{"latitude":54.6957265,"longitude":27.889382,"name":"Доўгае","description":"Former hamlet","date":null},{"latitude":54.776363,"longitude":27.85005,"name":"Старое Запонне","description":"Former hamlet; Wikipedia: be:Старое Запонне","date":null},{"latitude":54.49854,"longitude":27.99634,"name":"Капатніца","description":"Former hamlet","date":null},{"latitude":54.5628929,"longitude":27.9495339,"name":"Гаравец","description":"Former hamlet","date":null},{"latitude":53.9283271,"longitude":27.9125894,"name":"Вадапой","description":"Former hamlet","date":null},{"latitude":53.81979,"longitude":27.96664,"name":"Узбарогі","description":"Former hamlet; Wikipedia: be:Узбарогі","date":null},{"latitude":54.5374286,"longitude":27.749251,"name":"Востраў 1","description":"Former hamlet; Wikipedia: be:Востраў 1","date":null},{"latitude":54.7210596,"longitude":27.7637786,"name":"Засценак","description":"Former hamlet","date":null},{"latitude":54.7277971,"longitude":27.8221698,"name":"Слабада","description":"Former hamlet","date":null},{"latitude":54.6534462,"longitude":27.7505489,"name":"Патрубаўшчына","description":"Former hamlet","date":null},{"latitude":55.61382,"longitude":27.77155,"name":"Папкоў Луг","description":"Former hamlet","date":null},{"latitude":55.5961919,"longitude":27.7596374,"name":"Астравы","description":"Former hamlet","date":null},{"latitude":55.595025,"longitude":27.8212301,"name":"Кучняры","description":"Former hamlet; Wikipedia: be:Кучняры","date":null},{"latitude":55.6470467,"longitude":27.804311,"name":"Вялікая Глінаўка","description":"Former hamlet; Wikipedia: be:Вялікая Глінаўка","date":null},{"latitude":55.70034,"longitude":27.79653,"name":"Амбросенкі","description":"Former hamlet; Wikipedia: be:Амбросенкі (Мёрскі сельсавет)","date":null},{"latitude":55.69099,"longitude":27.74194,"name":"Застарынцы","description":"Former hamlet; Wikipedia: be:Застарынцы","date":null},{"latitude":55.716675,"longitude":27.744194,"name":"Паніжнікі","description":"Former hamlet; Wikipedia: be:Паніжнікі","date":null},{"latitude":55.6778083,"longitude":27.822678,"name":"Франопаль","description":"Former hamlet; Wikipedia: be:Франопаль (Мёрскі раён)","date":null},{"latitude":55.645561,"longitude":27.789093,"name":"Малая Глінаўка","description":"Former hamlet; Wikipedia: be:Малая Глінаўка","date":null},{"latitude":55.7579116,"longitude":27.6712546,"name":"Рыбакі","description":"Former isolated_dwelling; Wikipedia: be:Рыбакі (Мёрскі раён)","date":null},{"latitude":55.7219021,"longitude":27.7814124,"name":"Зайцава","description":"Former hamlet; Wikipedia: be:Зайцава (Мёрскі раён)","date":null},{"latitude":55.78471,"longitude":27.784,"name":"Балтрукі","description":"Former hamlet","date":null},{"latitude":55.7427744,"longitude":27.6982443,"name":"Тараракі","description":"Former hamlet; Wikipedia: be:Тараракі","date":null},{"latitude":55.3322594,"longitude":27.8022265,"name":"Беразнянка","description":"Former hamlet; Wikipedia: be:Беразнянка","date":null},{"latitude":55.31736,"longitude":27.67147,"name":"Грабло","description":"Former hamlet","date":null},{"latitude":55.31299,"longitude":27.79112,"name":"Падʼельцы","description":"Former hamlet","date":null},{"latitude":55.35925,"longitude":27.77893,"name":"Каўкі","description":"Former hamlet","date":null},{"latitude":55.2826,"longitude":27.82519,"name":"Мажай","description":"Former hamlet","date":null},{"latitude":55.3671273,"longitude":27.7779257,"name":"Лугі","description":"Former hamlet; Wikipedia: be:Лугі (Шаркаўшчынскі раён)","date":null},{"latitude":55.3786973,"longitude":27.8153436,"name":"Ахватка","description":"Former isolated_dwelling; Wikipedia: be:Ахватка","date":null},{"latitude":55.3715521,"longitude":27.7806399,"name":"Наваселле","description":"Former isolated_dwelling; Wikipedia: be:Наваселле (Лужкоўскі сельсавет)","date":null},{"latitude":55.4927853,"longitude":27.7171575,"name":"Пішчалёўка","description":"Former isolated_dwelling; Wikipedia: be:Пішчалёўка","date":null},{"latitude":55.530479,"longitude":27.65654,"name":"Вязаўцы","description":"Former hamlet; Wikipedia: be:Вязаўцы","date":null},{"latitude":55.54241,"longitude":27.66838,"name":"Жарствянка","description":"Former hamlet","date":null},{"latitude":55.0622382,"longitude":27.7705986,"name":"Субатава","description":"Former isolated_dwelling; Wikipedia: be:Субатава","date":null},{"latitude":55.04425,"longitude":27.708981,"name":"Дзямідзенкі","description":"Former hamlet; Wikipedia: be:Дзямідзенкі","date":null},{"latitude":55.10073,"longitude":27.65542,"name":"Корзева","description":"Former hamlet","date":null},{"latitude":55.08794,"longitude":27.75902,"name":"Шайтароўка","description":"Former hamlet","date":null},{"latitude":55.1242978,"longitude":27.7494521,"name":"Лявоніха","description":"Former hamlet","date":null},{"latitude":55.1521987,"longitude":27.8174038,"name":"Казюкі","description":"Former hamlet","date":null},{"latitude":55.2494556,"longitude":27.7972238,"name":"Кісарэўшчына 2","description":"Former hamlet","date":null},{"latitude":55.2379066,"longitude":27.823588,"name":"Гаравыя 2","description":"Former isolated_dwelling; Wikipedia: be:Гаравыя 2 (Глыбоцкі раён)","date":null},{"latitude":55.24526,"longitude":27.77061,"name":"Дзмітраўшчына 1","description":"Former hamlet","date":null},{"latitude":55.26733,"longitude":27.76391,"name":"Зямцы","description":"Former hamlet","date":null},{"latitude":55.26475,"longitude":27.73988,"name":"Калеснікі","description":"Former hamlet","date":null},{"latitude":54.8178396,"longitude":27.6700338,"name":"Хрыпатае","description":"Former hamlet","date":null},{"latitude":54.7932491,"longitude":27.8266863,"name":"Далёкае","description":"Former isolated_dwelling; Wikipedia: be:Далёкае","date":null},{"latitude":54.8314219,"longitude":27.6640415,"name":"Фларʼянава","description":"Former isolated_dwelling; Wikipedia: be:Флар’янава","date":null},{"latitude":54.8550396,"longitude":27.7413738,"name":"Валасатка","description":"Former hamlet; Wikipedia: be-tarask:Валасатка","date":null},{"latitude":54.929199,"longitude":27.761236,"name":"Наддаткі","description":"Former isolated_dwelling; Wikipedia: be:Наддаткі","date":null},{"latitude":54.927943,"longitude":27.6665038,"name":"Харошая Ель","description":"Former isolated_dwelling; Wikipedia: be:Харошая Ель","date":null},{"latitude":54.9686846,"longitude":27.7190685,"name":"Пузаны","description":"Former hamlet","date":null},{"latitude":54.97215,"longitude":27.81344,"name":"Жураўлёва","description":"Former hamlet","date":null},{"latitude":55.0052632,"longitude":27.7151603,"name":"Жалюбчыкі","description":"Former isolated_dwelling; Wikipedia: be:Жалюбчыкі","date":null},{"latitude":55.0163797,"longitude":27.7498051,"name":"Пабядзіншчына","description":"Former hamlet; Wikipedia: be:Пабядзіншчына (Докшыцкі раён)","date":null},{"latitude":55.92788,"longitude":28.03891,"name":"Шаўракі","description":"Former hamlet","date":null},{"latitude":55.8126634,"longitude":28.100237,"name":"Барадуліна","description":"Former hamlet; Wikipedia: be:Барадуліна (Верхнядзвінскі раён)","date":null},{"latitude":55.83698,"longitude":28.0396,"name":"Каркалец","description":"Former hamlet","date":null},{"latitude":55.88385,"longitude":28.1898,"name":"Іванцава","description":"Former hamlet","date":null},{"latitude":55.7465867,"longitude":28.1693785,"name":"Сафонава","description":"Former hamlet; Wikipedia: be:Сафонава (Верхнядзвінскі раён)","date":null},{"latitude":55.74268,"longitude":28.165838,"name":"Трэскавічы","description":"Former hamlet; Wikipedia: be:Трэскавічы","date":null},{"latitude":55.8292245,"longitude":28.1523454,"name":"Палыкоўшчына","description":"Former hamlet","date":null},{"latitude":55.79673,"longitude":28.07548,"name":"Барсукі","description":"Former hamlet","date":null},{"latitude":55.7842941,"longitude":28.0741041,"name":"Роскашы","description":"Former hamlet; Wikipedia: be:Роскашы","date":null},{"latitude":55.78866,"longitude":28.06028,"name":"Гараваткі","description":"Former hamlet; Wikipedia: be:Гараваткі (Бялькоўшчынскі сельсавет)","date":null},{"latitude":55.783544,"longitude":28.0488353,"name":"Паташня","description":"Former hamlet; Wikipedia: be:Паташня (Верхнядзвінскі раён)","date":null},{"latitude":55.7362723,"longitude":28.1497596,"name":"Барсукі","description":"Former hamlet; Wikipedia: be:Барсукі (Валынецкі сельсавет)","date":null},{"latitude":55.6690326,"longitude":28.0242168,"name":"Панізова","description":"Former isolated_dwelling; Wikipedia: be:Панізова","date":null},{"latitude":55.65768,"longitude":28.03042,"name":"Слабада","description":"Former hamlet","date":null},{"latitude":52.47482,"longitude":28.29374,"name":"Забінне","description":"Former hamlet","date":null},{"latitude":52.59224,"longitude":28.29331,"name":"Похіль","description":"Former hamlet","date":null},{"latitude":52.297501,"longitude":28.35623,"name":"Церабень","description":"Former hamlet; Wikipedia: be:Церабень (Петрыкаўскі раён)","date":null},{"latitude":56.0535695,"longitude":28.112457,"name":"Востраў","description":"Former hamlet","date":null},{"latitude":51.66951,"longitude":28.201912,"name":"Калініна","description":"Former hamlet; Wikipedia: be:Калініна (Лельчыцкі раён)","date":null},{"latitude":55.3998018,"longitude":28.0639214,"name":"Часткі","description":"Former hamlet","date":null},{"latitude":55.41238,"longitude":28.07479,"name":"Басянкі 1","description":"Former hamlet","date":null},{"latitude":55.38929,"longitude":28.11813,"name":"Кабячызна","description":"Former hamlet","date":null},{"latitude":55.38783,"longitude":28.09084,"name":"Чубарына","description":"Former hamlet","date":null},{"latitude":55.389839,"longitude":28.066921,"name":"Багуцкія","description":"Former hamlet; Wikipedia: be:Багуцкія","date":null},{"latitude":55.3229198,"longitude":28.1482336,"name":"Ласёва","description":"Former hamlet; Wikipedia: be:Ласёва","date":null},{"latitude":55.32114,"longitude":28.05453,"name":"Філіпава","description":"Former hamlet; Wikipedia: be:Філіпава (Глыбоцкі раён)","date":null},{"latitude":55.3319321,"longitude":28.0603161,"name":"Зарэчча","description":"Former isolated_dwelling; Wikipedia: be:Зарэчча (Лужкоўскі сельсавет)","date":null},{"latitude":55.2654816,"longitude":28.0551102,"name":"Чаранкі","description":"Former hamlet; Wikipedia: be:Чаранкі (Глыбоцкі раён)","date":null},{"latitude":55.2273592,"longitude":28.110549,"name":"Хвашчова","description":"Former isolated_dwelling; Wikipedia: be:Хвашчова (Глыбоцкі раён)","date":null},{"latitude":55.6423808,"longitude":28.0762929,"name":"Грыгаравічы","description":"Former hamlet","date":null},{"latitude":55.5062689,"longitude":28.1910667,"name":"Дворыца","description":"Former hamlet; Wikipedia: be:Дворыца (Мёрскі раён)","date":null},{"latitude":55.523608,"longitude":28.0860343,"name":"Лугаўцы","description":"Former isolated_dwelling; Wikipedia: be:Лугаўцы (Мёрскі раён)","date":null},{"latitude":55.3638018,"longitude":28.1882177,"name":"Блошнікі","description":"Former hamlet; Wikipedia: be:Блошнікі","date":null},{"latitude":53.985714,"longitude":28.346073,"name":"Аслессе","description":"Former isolated_dwelling; Wikipedia: be:Аслессе","date":null},{"latitude":54.4627207,"longitude":28.3286081,"name":"Лісінская Рудня","description":"Former hamlet; Wikipedia: be:Лісінская Рудня; Была спалена пад час спальваньня травы прыкладна ў 2013 годзе. Не засталося ніводнага дому.","date":null},{"latitude":54.48627,"longitude":28.26087,"name":"Азяродзішча","description":"Former hamlet; Wikipedia: be-tarask:Азяродзішча","date":null},{"latitude":54.48549,"longitude":28.29915,"name":"Новае Сяло","description":"Former hamlet","date":null},{"latitude":54.49613,"longitude":28.27091,"name":"Звінятка","description":"Former hamlet","date":null},{"latitude":53.16902,"longitude":28.32851,"name":"Паўлаўка","description":"Former hamlet","date":null},{"latitude":52.77137,"longitude":28.21813,"name":"Баравіно","description":"Former hamlet","date":null},{"latitude":53.55492,"longitude":28.3491,"name":"Вялікія Лукі","description":"Former hamlet; Wikipedia: be:Вялікія Лукі (Пухавіцкі раён)","date":null},{"latitude":55.910279,"longitude":27.9120285,"name":"Верхняе Фаміно","description":"Former hamlet","date":null},{"latitude":55.90685,"longitude":28.00552,"name":"Карэнікі","description":"Former hamlet","date":null},{"latitude":55.9171735,"longitude":27.9345705,"name":"Юралава","description":"Former hamlet; Wikipedia: be:Юралава","date":null},{"latitude":55.93706,"longitude":28.00089,"name":"Баркова","description":"Former hamlet; Wikipedia: be:Баркова (Верхнядзвінскі раён)","date":null},{"latitude":56.01594,"longitude":27.91884,"name":"Гісялёва","description":"Former hamlet","date":null},{"latitude":55.8567208,"longitude":27.9594524,"name":"Заламы","description":"Former hamlet; Wikipedia: be:Заламы","date":null},{"latitude":55.8142504,"longitude":27.8644751,"name":"Брэдзева","description":"Former hamlet; Wikipedia: be:Брэдзева","date":null},{"latitude":55.82059,"longitude":27.9802,"name":"Глазкі","description":"Former hamlet","date":null},{"latitude":55.99543,"longitude":27.99016,"name":"Валюкі","description":"Former hamlet","date":null},{"latitude":53.32077,"longitude":28.03986,"name":"Палёк","description":"Former hamlet","date":null},{"latitude":53.0004495,"longitude":28.0426818,"name":"Смалярня","description":"Former hamlet; Wikipedia: be-tarask:Смалярня (Старадароскі раён)","date":null},{"latitude":53.03555,"longitude":28.07445,"name":"Чырваналессе","description":"Former hamlet","date":null},{"latitude":55.328442,"longitude":27.92424,"name":"Салаўіная","description":"Former hamlet; Wikipedia: be:Салаўіная","date":null},{"latitude":55.31418,"longitude":27.85575,"name":"Емельянчыкі","description":"Former hamlet","date":null},{"latitude":55.31891,"longitude":27.87446,"name":"Правальнава","description":"Former hamlet","date":null},{"latitude":55.30689,"longitude":27.87171,"name":"Ізабеліна","description":"Former hamlet; Wikipedia: be:Ізабеліна (Шаркаўшчынскі раён)","date":null},{"latitude":55.26483,"longitude":27.84811,"name":"Навасёлкі","description":"Former hamlet","date":null},{"latitude":55.2824356,"longitude":27.9209389,"name":"Брод","description":"Former isolated_dwelling; Wikipedia: be:Брод (Глыбоцкі раён)","date":null},{"latitude":55.20132,"longitude":27.9154,"name":"Маліннікі","description":"Former hamlet","date":null},{"latitude":55.38989,"longitude":27.93746,"name":"Плаўна","description":"Former hamlet","date":null},{"latitude":55.4219,"longitude":27.91308,"name":"Пнёва","description":"Former hamlet","date":null},{"latitude":55.3528368,"longitude":28.0060223,"name":"Багатырова 2","description":"Former hamlet","date":null},{"latitude":55.4269565,"longitude":27.905646,"name":"Мамонаўка","description":"Former hamlet","date":null},{"latitude":55.292061,"longitude":27.9170466,"name":"Каміншчына","description":"Former hamlet; Wikipedia: be:Каміншчына (Пліскі сельсавет)","date":null},{"latitude":55.3283927,"longitude":27.9908789,"name":"Сямкова","description":"Former hamlet","date":null},{"latitude":55.3257511,"longitude":28.0071186,"name":"Ганчары","description":"Former hamlet","date":null},{"latitude":55.6848975,"longitude":27.8957013,"name":"Клёміна","description":"Former hamlet; Wikipedia: be:Клёміна","date":null},{"latitude":55.6588,"longitude":27.97239,"name":"Барашкі","description":"Former hamlet","date":null},{"latitude":55.637241,"longitude":27.993954,"name":"Відокі","description":"Former hamlet; Wikipedia: be:Відокі (Мёрскі раён)","date":null},{"latitude":55.6589472,"longitude":27.8935777,"name":"Юркоўшчына","description":"Former isolated_dwelling","date":null},{"latitude":55.6958707,"longitude":27.9137832,"name":"Вінагроды","description":"Former hamlet; Wikipedia: be:Вінагроды","date":null},{"latitude":55.689178,"longitude":27.93446,"name":"Верашчакі","description":"Former hamlet; Wikipedia: be:Верашчакі (Мёрскі раён)","date":null},{"latitude":55.61013,"longitude":27.99359,"name":"Буракова","description":"Former hamlet","date":null},{"latitude":55.59631,"longitude":28.0075,"name":"Пруды","description":"Former hamlet; Wikipedia: be:Пруды (Мёрскі раён)","date":null},{"latitude":55.4730536,"longitude":27.9802671,"name":"Мурашчына","description":"Former hamlet; Wikipedia: be:Мурашчына (Шаркаўшчынскі раён)","date":null},{"latitude":55.8716788,"longitude":27.8340676,"name":"Запасішкі","description":"Former hamlet","date":null},{"latitude":55.7035607,"longitude":27.8788328,"name":"Карандашы","description":"Former hamlet; Wikipedia: be:Карандашы","date":null},{"latitude":54.3709804,"longitude":28.1138273,"name":"Смольніца","description":"Former hamlet","date":null},{"latitude":54.4654415,"longitude":28.1238247,"name":"Стаецкія","description":"Former hamlet; Wikipedia: be:Стаецкія","date":null},{"latitude":54.4936214,"longitude":28.0686835,"name":"Губа","description":"Former hamlet; Wikipedia: be:Губа (Лагойскі раён)","date":null},{"latitude":54.988628,"longitude":28.103889,"name":"Горнава 2","description":"Former hamlet; Wikipedia: be:Горнава 2","date":null},{"latitude":55.06785,"longitude":28.16723,"name":"Глаты","description":"Former hamlet","date":null},{"latitude":55.0627114,"longitude":28.1732475,"name":"Альхоўка","description":"Former hamlet","date":null},{"latitude":55.0786619,"longitude":28.070731,"name":"Чыстае","description":"Former isolated_dwelling; Wikipedia: be:Чыстае (Глыбоцкі раён)","date":null},{"latitude":55.1656895,"longitude":28.1275333,"name":"Юсціянава","description":"Former isolated_dwelling; Wikipedia: be:Юсціянава (Глыбоцкі раён)","date":null},{"latitude":55.1861038,"longitude":28.0939228,"name":"Лявонавічы","description":"Former isolated_dwelling; Wikipedia: be:Лявонавічы (Глыбоцкі раён)","date":null},{"latitude":53.15134,"longitude":28.63698,"name":"Славіна","description":"Former hamlet","date":null},{"latitude":53.1162412,"longitude":28.5761495,"name":"Тоўсты Лес","description":"Former hamlet","date":null},{"latitude":53.16765,"longitude":28.64093,"name":"Мяжное","description":"Former hamlet","date":null},{"latitude":53.47475,"longitude":28.64994,"name":"Воля","description":"Former hamlet","date":null},{"latitude":53.50093,"longitude":28.63981,"name":"Буда","description":"Former hamlet","date":null},{"latitude":53.4642222,"longitude":28.5511628,"name":"Амялішча","description":"Former hamlet","date":null},{"latitude":53.49964,"longitude":28.71835,"name":"Палядкі","description":"Former hamlet","date":null},{"latitude":53.44952,"longitude":28.61999,"name":"Навіна","description":"Former hamlet","date":null},{"latitude":53.9880297,"longitude":28.5736069,"name":"Рыбачнае","description":"Former isolated_dwelling; Wikipedia: be:Рыбачнае","date":null},{"latitude":53.95849,"longitude":28.61578,"name":"Рэчкі","description":"Former hamlet","date":null},{"latitude":53.6943,"longitude":28.70298,"name":"Пятроўка","description":"Former hamlet; Wikipedia: be:Пятроўка (Чэрвеньскі раён)","date":null},{"latitude":55.24217,"longitude":28.39854,"name":"Блудавікі","description":"Former hamlet","date":null},{"latitude":55.3295038,"longitude":28.5372286,"name":"Загорцы","description":"Former hamlet; Wikipedia: be:Загорцы (Полацкі раён)","date":null},{"latitude":54.96202,"longitude":28.51132,"name":"Каменка","description":"Former hamlet; Wikipedia: be:Каменка (Лепельскі раён)","date":null},{"latitude":51.61265,"longitude":28.61707,"name":"Новы Хутар","description":"Former hamlet","date":null},{"latitude":51.645439,"longitude":28.58634,"name":"Везцы","description":"Former hamlet; Wikipedia: ru:Везцы (Ельский район)","date":null},{"latitude":51.657028,"longitude":28.57493,"name":"Шыя","description":"Former hamlet; Wikipedia: ru:Шия (Ельский район)","date":null},{"latitude":51.635479,"longitude":28.62763,"name":"Глазкі","description":"Former hamlet; Wikipedia: ru:Глазки (Ельский район)","date":null},{"latitude":55.5406173,"longitude":28.5193238,"name":"Дзягодкі","description":"Former hamlet","date":null},{"latitude":55.4742513,"longitude":28.39402,"name":"Ніжнія Марозы","description":"Former hamlet; Wikipedia: be:Ніжнія Марозы","date":null},{"latitude":55.528954,"longitude":28.489645,"name":"Цюлькі","description":"Former hamlet; Wikipedia: be:Цюлькі (Полацкі раён)","date":null},{"latitude":55.5502757,"longitude":28.5469655,"name":"Маскі","description":"Former hamlet","date":null},{"latitude":55.8101609,"longitude":28.3936046,"name":"Рудня","description":"Former hamlet; Wikipedia: be:Рудня (Верхнядзвінскі раён)","date":null},{"latitude":55.85569,"longitude":28.37769,"name":"Залессе","description":"Former hamlet; Wikipedia: be:Залессе (Расонскі раён)","date":null},{"latitude":53.5771133,"longitude":28.5118004,"name":"Асінавы Мост","description":"Former hamlet","date":null},{"latitude":53.103725,"longitude":28.526304,"name":"Арыжня","description":"Former hamlet; Wikipedia: be:Арыжня (вёска)","date":null},{"latitude":53.02577,"longitude":28.4818,"name":"Слынь","description":"Former hamlet","date":null},{"latitude":52.95727,"longitude":28.43966,"name":"Людзвінова","description":"Former hamlet","date":null},{"latitude":52.9895657,"longitude":28.4882928,"name":"Заастроўе","description":"Former hamlet","date":null},{"latitude":52.8881977,"longitude":28.5168391,"name":"Бараціна","description":"Former hamlet; Wikipedia: be:Бараціна (Глускі раён)","date":null},{"latitude":52.279129,"longitude":28.404551,"name":"Падозбін","description":"Former hamlet; Wikipedia: be:Падозбін","date":null},{"latitude":54.7043334,"longitude":28.5577336,"name":"Вострава","description":"Former isolated_dwelling; Wikipedia: be:Вострава (Лепельскі раён)","date":null},{"latitude":54.59432,"longitude":28.51381,"name":"Глыбочыца","description":"Former hamlet; Wikipedia: be-tarask:Глыбочыца (Менская вобласьць)","date":null},{"latitude":54.45656,"longitude":28.51115,"name":"Заосіна","description":"Former hamlet","date":null},{"latitude":54.4496221,"longitude":28.4915132,"name":"Белавіна","description":"Former hamlet","date":null},{"latitude":54.460407,"longitude":28.4878685,"name":"Дубовы Лог","description":"Former hamlet; Wikipedia: be:Дубовы Лог (Весялоўскі сельсавет)","date":null},{"latitude":55.502071,"longitude":28.26387,"name":"Цішыно","description":"Former hamlet; Wikipedia: be:Цішыно","date":null},{"latitude":55.513309,"longitude":28.28808,"name":"Рандары","description":"Former hamlet; Wikipedia: be:Рандары","date":null},{"latitude":55.4951148,"longitude":28.2769484,"name":"Лазоўка","description":"Former hamlet","date":null},{"latitude":55.39942,"longitude":28.26619,"name":"Сяльцо 2","description":"Former hamlet; Wikipedia: be:Сяльцо 2","date":null},{"latitude":55.4100438,"longitude":28.2096572,"name":"Калачы","description":"Former hamlet; Wikipedia: be:Калачы (Мёрскі раён)","date":null},{"latitude":55.3710725,"longitude":28.2916575,"name":"Петухоўшчына","description":"Former hamlet; Wikipedia: be:Петухоўшчына (Полацкі раён)","date":null},{"latitude":55.414688,"longitude":28.26671,"name":"Сяргейчыкі","description":"Former hamlet; Wikipedia: be:Сяргейчыкі","date":null},{"latitude":55.4374928,"longitude":28.2492289,"name":"Заборʼе","description":"Former hamlet; Wikipedia: be:Забор’е (Язненскі сельсавет)","date":null},{"latitude":55.45787,"longitude":28.23675,"name":"Красняне","description":"Former hamlet; Wikipedia: be:Красняне","date":null},{"latitude":55.261179,"longitude":28.2886925,"name":"Карчомнае","description":"Former hamlet","date":null},{"latitude":55.2608,"longitude":28.31666,"name":"Заполле","description":"Former hamlet","date":null},{"latitude":55.26664,"longitude":28.27357,"name":"Ляпейкі","description":"Former hamlet","date":null},{"latitude":55.27556,"longitude":28.27254,"name":"Якушава","description":"Former hamlet","date":null},{"latitude":55.2766182,"longitude":28.2460329,"name":"Ксты","description":"Former isolated_dwelling; Wikipedia: be:Ксты (Глыбоцкі раён)","date":null},{"latitude":55.2940889,"longitude":28.2825843,"name":"Кісялёва","description":"Former hamlet; Wikipedia: be:Кісялёва (Глыбоцкі раён)","date":null},{"latitude":55.901009,"longitude":28.250059,"name":"Маскалёнкі","description":"Former hamlet; Wikipedia: be:Маскалёнкі (Верхнядзвінскі раён)","date":null},{"latitude":55.8784915,"longitude":28.2130922,"name":"Валейкава","description":"Former hamlet; Wikipedia: be:Валейкава","date":null},{"latitude":55.84471,"longitude":28.22534,"name":"Сямёнава","description":"Former hamlet; Wikipedia: be:Сямёнава (Верхнядзвінскі раён)","date":null},{"latitude":55.81776,"longitude":28.20877,"name":"Міснікава","description":"Former hamlet","date":null},{"latitude":55.81673,"longitude":28.22388,"name":"Гудава","description":"Former hamlet","date":null},{"latitude":55.82351,"longitude":28.34009,"name":"Чырвоны Кастрычнік","description":"Former hamlet","date":null},{"latitude":55.84471,"longitude":28.19427,"name":"Шэлягава","description":"Former hamlet","date":null},{"latitude":55.8749303,"longitude":28.2093822,"name":"Стараселле","description":"Former hamlet; Wikipedia: be:Стараселле (Верхнядзвінскі раён)","date":null},{"latitude":51.62776,"longitude":28.43648,"name":"Воранаў","description":"Former hamlet; Wikipedia: be:Воранаў (Лельчыцкі раён)","date":null},{"latitude":56.0326299,"longitude":28.2789639,"name":"Гарадзілавічы 2","description":"Former hamlet","date":null},{"latitude":55.96753,"longitude":28.20379,"name":"Кісялі","description":"Former hamlet; Wikipedia: be:Кісялі (Верхнядзвінскі раён)","date":null},{"latitude":55.678235,"longitude":28.2582801,"name":"Скарада","description":"Former hamlet; Wikipedia: be:Скарада (Верхнядзвінскі раён)","date":null},{"latitude":55.700771,"longitude":28.216499,"name":"Забелы 1","description":"Former hamlet; Wikipedia: be:Забелы 1","date":null},{"latitude":55.79904,"longitude":28.23006,"name":"Заборʼе","description":"Former isolated_dwelling; Wikipedia: be:Забор’е (Бялькоўшчынскі сельсавет)","date":null},{"latitude":55.796471,"longitude":28.23752,"name":"Крыськава","description":"Former isolated_dwelling; Wikipedia: be:Крыськава","date":null},{"latitude":55.769428,"longitude":28.21504,"name":"Лаўрукі","description":"Former hamlet; Wikipedia: be:Лаўрукі","date":null},{"latitude":55.5924904,"longitude":28.311241,"name":"Батурына","description":"Former hamlet; Wikipedia: be:Батурына (Верхнядзвінскі раён)","date":null},{"latitude":55.585829,"longitude":28.2372253,"name":"Букі","description":"Former hamlet; Wikipedia: be:Букі (Верхнядзвінскі раён)","date":null},{"latitude":55.54705,"longitude":28.2728,"name":"Падзвінне","description":"Former hamlet; Wikipedia: be:Падзвінне (Мёрскі раён)","date":null},{"latitude":55.5970757,"longitude":28.3239328,"name":"Шупейкі","description":"Former hamlet; Wikipedia: be:Шупейкі (Верхнядзвінскі раён)","date":null},{"latitude":55.5949679,"longitude":28.329799,"name":"Плішчына","description":"Former hamlet; Wikipedia: be:Плішчына","date":null},{"latitude":55.607731,"longitude":28.259069,"name":"Двор Зялькі","description":"Former hamlet; Wikipedia: be:Двор Зялькі","date":null},{"latitude":55.1245304,"longitude":28.8989194,"name":"Вялічкаўцы","description":"Former hamlet; Wikipedia: be:Вялічкаўцы","date":null},{"latitude":55.591252,"longitude":28.8199532,"name":"Верабʼі","description":"Former hamlet","date":null},{"latitude":51.652763,"longitude":28.995258,"name":"Кузьмічы","description":"Former hamlet; Wikipedia: ru:Кузьмичи (Гомельская область)","date":null},{"latitude":51.61051,"longitude":28.924,"name":"Патапы","description":"Former hamlet; Wikipedia: ru:Потапы","date":null},{"latitude":52.6013087,"longitude":28.922409,"name":"Грабнікі","description":"Former hamlet","date":null},{"latitude":52.59739,"longitude":29.03421,"name":"Пухічын","description":"Former hamlet","date":null},{"latitude":52.79463,"longitude":28.93215,"name":"Зялёнка","description":"Former hamlet","date":null},{"latitude":52.4446729,"longitude":28.9966082,"name":"Дуброва","description":"Former hamlet; Wikipedia: be:Дуброва (Колкаўскі сельсавет)","date":null},{"latitude":52.48993,"longitude":28.92692,"name":"Сялец","description":"Former hamlet","date":null},{"latitude":53.04354,"longitude":28.92649,"name":"Лужанец","description":"Former hamlet; Wikipedia: be:Лужанец","date":null},{"latitude":53.06457,"longitude":28.95859,"name":"Харошыя","description":"Former hamlet; Wikipedia: be:Харошыя","date":null},{"latitude":53.02937,"longitude":29.08553,"name":"Сулева","description":"Former hamlet","date":null},{"latitude":54.19289,"longitude":28.83885,"name":"Верабʼёўшчына","description":"Former hamlet","date":null},{"latitude":54.51261,"longitude":28.82135,"name":"Будзішча","description":"Former hamlet","date":null},{"latitude":54.48266,"longitude":28.86005,"name":"Зораслі","description":"Former hamlet; Wikipedia: be:Зораслі","date":null},{"latitude":54.60076,"longitude":28.75354,"name":"Студзенка","description":"Former hamlet","date":null},{"latitude":54.7244257,"longitude":28.7685813,"name":"Карсащина","description":"Former hamlet","date":null},{"latitude":54.6817,"longitude":28.8392,"name":"Лябікі","description":"Former hamlet","date":null},{"latitude":54.6805,"longitude":28.77989,"name":"Стайкі","description":"Former hamlet","date":null},{"latitude":54.7063821,"longitude":28.7395394,"name":"Калінаўка","description":"Former isolated_dwelling; Wikipedia: be:Калінаўка (Лепельскі раён)","date":null},{"latitude":54.7537607,"longitude":28.7358607,"name":"Чырвоны Кастрычнік","description":"Former isolated_dwelling; Wikipedia: be:Чырвоны Кастрычнік (Лепельскі раён)","date":null},{"latitude":54.8005117,"longitude":28.8721328,"name":"Тадуліна","description":"Former isolated_dwelling; Wikipedia: be:Тадуліна (Лепельскі раён)","date":null},{"latitude":54.84547,"longitude":28.79371,"name":"Масцішча","description":"Former hamlet","date":null},{"latitude":54.8718233,"longitude":28.8531874,"name":"Пунты","description":"Former hamlet; Wikipedia: be:Пунты","date":null},{"latitude":55.06511,"longitude":28.79053,"name":"Старынка","description":"Former hamlet; Wikipedia: be:Старынка (Сарочынскі сельсавет)","date":null},{"latitude":55.0811529,"longitude":28.8973647,"name":"Зачысце","description":"Former hamlet","date":null},{"latitude":51.731686,"longitude":28.805752,"name":"Чапаеўка","description":"Former hamlet; Wikipedia: ru:Чапаевка (Ельский район)","date":null},{"latitude":51.600121,"longitude":28.800831,"name":"Захаркі 2","description":"Former hamlet; Wikipedia: be:Захаркі 2","date":null},{"latitude":51.61797,"longitude":28.888008,"name":"Пагарэлае","description":"Former hamlet; Wikipedia: ru:Погорелое (Гомельская область)","date":null},{"latitude":55.998051,"longitude":28.6213839,"name":"Хаданы","description":"Former hamlet; Wikipedia: be:Хаданы","date":null},{"latitude":53.0676968,"longitude":28.8938683,"name":"Дзеўчын","description":"Former hamlet; Wikipedia: be:Дзеўчын","date":null},{"latitude":52.862949,"longitude":28.902109,"name":"Уюнішча","description":"Former hamlet; Wikipedia: be:Уюнішча","date":null},{"latitude":53.47217,"longitude":28.90863,"name":"Карма","description":"Former hamlet","date":null},{"latitude":53.17142,"longitude":28.86684,"name":"Кінаўка","description":"Former hamlet","date":null},{"latitude":53.2235959,"longitude":28.8679307,"name":"Свабода","description":"Former hamlet; Wikipedia: ru:Свобода (Могилёвская область)","date":null},{"latitude":53.19134,"longitude":28.83096,"name":"Краснік","description":"Former hamlet","date":null},{"latitude":53.1744887,"longitude":28.8362834,"name":"Гумнішча","description":"Former hamlet","date":null},{"latitude":53.18893,"longitude":28.88297,"name":"Шыпы","description":"Former hamlet","date":null},{"latitude":53.10456,"longitude":28.78779,"name":"Баяршчына","description":"Former hamlet","date":null},{"latitude":53.11426,"longitude":28.88632,"name":"Рубежы","description":"Former hamlet","date":null},{"latitude":53.7225016,"longitude":28.8707711,"name":"Рачыбарок","description":"Former hamlet","date":null},{"latitude":53.72855,"longitude":28.859449,"name":"Віляціна","description":"Former hamlet; Wikipedia: be:Віляціна","date":null},{"latitude":53.6429221,"longitude":28.8888341,"name":"Рэгісполле","description":"Former hamlet; Wikipedia: be:Рэгісполле","date":null},{"latitude":53.68658,"longitude":28.80263,"name":"Курганне","description":"Former hamlet","date":null},{"latitude":53.63096,"longitude":28.83637,"name":"Хутар","description":"Former hamlet","date":null},{"latitude":54.70934,"longitude":28.71474,"name":"Вабалочча","description":"Former hamlet","date":null},{"latitude":54.7007815,"longitude":28.6915202,"name":"Валатоўкі","description":"Former hamlet; Wikipedia: be:Валатоўкі (Лепельскі раён)","date":null},{"latitude":54.7773497,"longitude":28.7101165,"name":"Паташня","description":"Former isolated_dwelling; Wikipedia: be:Паташня (Лепельскі раён)","date":null},{"latitude":54.6198249,"longitude":28.5883584,"name":"Студзенка 2","description":"Former hamlet","date":null},{"latitude":54.5945882,"longitude":28.6896463,"name":"Ясная Горка","description":"Former hamlet","date":null},{"latitude":54.60926,"longitude":28.569,"name":"Студзенка 1","description":"Former hamlet","date":null},{"latitude":55.05798,"longitude":28.58316,"name":"Навалокі","description":"Former hamlet","date":null},{"latitude":54.932838,"longitude":28.594669,"name":"Клеўзы","description":"Former hamlet; Wikipedia: be:Клеўзы","date":null},{"latitude":55.44783,"longitude":28.68239,"name":"163 км","description":"Former hamlet","date":null},{"latitude":55.8436793,"longitude":28.7238078,"name":"Замошша","description":"Former hamlet; Wikipedia: be:Замошша (Расонскі раён)","date":null},{"latitude":55.81956,"longitude":28.55467,"name":"Абухава","description":"Former hamlet","date":null},{"latitude":55.83243,"longitude":28.66282,"name":"Пірагі","description":"Former hamlet","date":null},{"latitude":55.91277,"longitude":28.64144,"name":"Доўгі Бор","description":"Former hamlet","date":null},{"latitude":55.8817,"longitude":28.68934,"name":"Казімірава","description":"Former hamlet","date":null},{"latitude":55.4722,"longitude":28.62591,"name":"Зуі","description":"Former hamlet","date":null},{"latitude":55.3821646,"longitude":29.1799045,"name":"Балотнікі","description":"Former hamlet; Wikipedia: be:Балотнікі (Шумілінскі раён)","date":null},{"latitude":55.43847,"longitude":29.13351,"name":"Дзямоўшчына","description":"Former hamlet","date":null},{"latitude":55.7265698,"longitude":29.2632573,"name":"Лешна","description":"Former hamlet; Wikipedia: be:Лешна (Полацкі раён)","date":null},{"latitude":55.5372453,"longitude":29.1195175,"name":"Заполле","description":"Former hamlet","date":null},{"latitude":55.5493404,"longitude":29.1355167,"name":"Круглікі","description":"Former hamlet","date":null},{"latitude":55.8808088,"longitude":29.1869835,"name":"Шнітаўка","description":"Former hamlet; Wikipedia: be:Шнітаўка","date":null},{"latitude":55.8554027,"longitude":29.205266,"name":"Дубовікі","description":"Former hamlet","date":null},{"latitude":55.1408379,"longitude":29.1048913,"name":"Арлова","description":"Former hamlet","date":null},{"latitude":55.12218,"longitude":29.15136,"name":"Бікложы","description":"Former hamlet","date":null},{"latitude":55.1175094,"longitude":29.1330268,"name":"Сапегі","description":"Former hamlet; Wikipedia: be:Сапегі (Бешанковіцкі раён)","date":null},{"latitude":55.1342712,"longitude":29.1854804,"name":"Прудзіны","description":"Former hamlet; Wikipedia: be:Прудзіны (Бешанковіцкі раён)","date":null},{"latitude":55.11352,"longitude":29.16905,"name":"Мураўшчына","description":"Former hamlet; Wikipedia: be:Мураўшчына (Бешанковіцкі раён)","date":null},{"latitude":55.2582942,"longitude":29.1869923,"name":"Дворнікі","description":"Former hamlet; Wikipedia: be:Дворнікі","date":null},{"latitude":55.2997221,"longitude":29.1643646,"name":"Падлессе","description":"Former hamlet; Wikipedia: be:Падлессе (Шумілінскі раён)","date":null},{"latitude":55.3330586,"longitude":29.2207185,"name":"Клямяціна","description":"Former hamlet","date":null},{"latitude":55.2893715,"longitude":29.2556077,"name":"Козікі","description":"Former hamlet; Wikipedia: be:Козікі (Шумілінскі раён)","date":null},{"latitude":55.3054081,"longitude":29.1791014,"name":"Глінна","description":"Former hamlet; Wikipedia: be:Глінна (Шумілінскі раён)","date":null},{"latitude":54.92847,"longitude":29.09532,"name":"Федзькі","description":"Former hamlet","date":null},{"latitude":54.72195,"longitude":29.22595,"name":"Карнілаўка","description":"Former hamlet","date":null},{"latitude":54.6961287,"longitude":29.2509444,"name":"Барцы","description":"Former hamlet; Wikipedia: be:Барцы","date":null},{"latitude":54.72427,"longitude":29.26535,"name":"Залезькі","description":"Former hamlet","date":null},{"latitude":54.69801,"longitude":29.20424,"name":"Зара","description":"Former hamlet; Wikipedia: be:Зара (Чашніцкі раён)","date":null},{"latitude":54.7467753,"longitude":29.122317,"name":"Парнеўка","description":"Former hamlet; Wikipedia: be:Парнеўка","date":null},{"latitude":54.8063411,"longitude":29.0893719,"name":"Няўгодава","description":"Former hamlet","date":null},{"latitude":54.79345,"longitude":29.1153628,"name":"Чырвоны Барэц","description":"Former hamlet","date":null},{"latitude":54.785542,"longitude":29.1952551,"name":"Стаішча","description":"Former hamlet","date":null},{"latitude":54.253547,"longitude":29.2214668,"name":"Літвіноўка","description":"Former hamlet","date":null},{"latitude":54.42103,"longitude":29.15514,"name":"Скарадзіца","description":"Former hamlet; Wikipedia: be:Скарадзіца","date":null},{"latitude":54.4278788,"longitude":29.182201,"name":"Студзёнка","description":"Former hamlet; Wikipedia: be:Студзёнка (Крупскі раён)","date":null},{"latitude":53.63045,"longitude":29.14458,"name":"Ніва","description":"Former hamlet","date":null},{"latitude":53.68057,"longitude":29.16038,"name":"Буда","description":"Former hamlet","date":null},{"latitude":53.5356739,"longitude":29.2394996,"name":"Дубраўка","description":"Former hamlet","date":null},{"latitude":53.5635239,"longitude":29.2287265,"name":"Нікалаеўка","description":"Former hamlet","date":null},{"latitude":53.74065,"longitude":29.103041,"name":"Бярэзніца","description":"Former hamlet; Wikipedia: be:Бярэзніца (Бярэзінскі раён)","date":null},{"latitude":53.32523,"longitude":29.14476,"name":"Сотнае","description":"Former isolated_dwelling; Wikipedia: be:Сотнае","date":null},{"latitude":52.578568,"longitude":29.096159,"name":"Параслішча","description":"Former hamlet; Wikipedia: be:Параслішча","date":null},{"latitude":55.6462458,"longitude":28.9593349,"name":"Лонніца","description":"Former hamlet; Wikipedia: be:Лонніца (вёска)","date":null},{"latitude":55.5892315,"longitude":28.9647815,"name":"Сасноўка","description":"Former hamlet; Wikipedia: be:Сасноўка (Полацкі раён)","date":null},{"latitude":55.9888451,"longitude":29.0468762,"name":"Вераціна","description":"Former hamlet","date":null},{"latitude":55.9679584,"longitude":28.9452371,"name":"Петракова","description":"Former hamlet; Wikipedia: be:Петракова (Расонскі раён)","date":null},{"latitude":55.4845902,"longitude":29.0159751,"name":"Давыдзькава","description":"Former hamlet; Wikipedia: be:Давыдзькава","date":null},{"latitude":55.32543,"longitude":28.92966,"name":"Будзішча","description":"Former hamlet","date":null},{"latitude":55.1381643,"longitude":28.9117969,"name":"Губінка","description":"Former hamlet; Wikipedia: be:Губінка (Ушацкі раён)","date":null},{"latitude":55.123211,"longitude":28.92211,"name":"Мішулькі","description":"Former hamlet; Wikipedia: be:Мішулькі","date":null},{"latitude":55.0589013,"longitude":29.0432706,"name":"Падаліца","description":"Former hamlet; Wikipedia: be:Падаліца","date":null},{"latitude":54.96014,"longitude":29.0203,"name":"Саснягі","description":"Former hamlet; Wikipedia: be:Саснягі","date":null},{"latitude":54.7792523,"longitude":29.0141505,"name":"Каранёўка","description":"Former hamlet","date":null},{"latitude":54.8188773,"longitude":29.0279648,"name":"Дзярэўня","description":"Former hamlet; Wikipedia: be:Дзярэўня","date":null},{"latitude":54.7403343,"longitude":28.9360934,"name":"Касцюкоўшчына","description":"Former hamlet; Wikipedia: be:Касцюкоўшчына","date":null},{"latitude":54.792095,"longitude":29.008482,"name":"Турыца","description":"Former isolated_dwelling; Wikipedia: be:Турыца","date":null},{"latitude":54.697976,"longitude":28.9609183,"name":"Петракова","description":"Former hamlet","date":null},{"latitude":54.7318102,"longitude":28.9070315,"name":"Ліпкі","description":"Former isolated_dwelling; Wikipedia: be:Ліпкі (Лепельскі раён)","date":null},{"latitude":54.66119,"longitude":28.92606,"name":"Фёдараўка","description":"Former hamlet","date":null},{"latitude":54.4532593,"longitude":29.0076957,"name":"Батуры","description":"Former hamlet; Wikipedia: be:Батуры (Крупскі раён)","date":null},{"latitude":54.20028,"longitude":28.96185,"name":"Мігаўшчына","description":"Former hamlet","date":null},{"latitude":53.9755655,"longitude":29.0291993,"name":"Берʼе","description":"Former hamlet; Wikipedia: be:Бер’е","date":null},{"latitude":53.674561,"longitude":29.04734,"name":"Стары Койцін","description":"Former hamlet; Wikipedia: be:Стары Койцін","date":null},{"latitude":53.5241,"longitude":29.06262,"name":"Леніна","description":"Former hamlet","date":null},{"latitude":53.588776,"longitude":29.056589,"name":"Зорка","description":"Former hamlet; Wikipedia: be:Зорка (Бярэзінскі раён)","date":null},{"latitude":53.5935671,"longitude":29.056411,"name":"Адвага","description":"Former hamlet; Wikipedia: be:Адвага","date":null},{"latitude":53.4815364,"longitude":28.9786073,"name":"Старое Сяло","description":"Former hamlet; Wikipedia: be:Старое Сяло (Клічаўскі раён)","date":null},{"latitude":53.17572,"longitude":28.95249,"name":"Віктараўка","description":"Former hamlet; Wikipedia: be:Віктараўка (Бабруйскі раён)","date":null},{"latitude":54.4367941,"longitude":29.4536097,"name":"Латышова","description":"Former hamlet; Wikipedia: be:Латышова (Талачынскі раён)","date":null},{"latitude":54.4135864,"longitude":29.6080863,"name":"Жаўна","description":"Former hamlet; Wikipedia: be:Жаўна (Талачынскі раён)","date":null},{"latitude":54.4091993,"longitude":29.6062777,"name":"Прудзец","description":"Former hamlet","date":null},{"latitude":54.41417,"longitude":29.49537,"name":"Ельнікі","description":"Former hamlet","date":null},{"latitude":54.5133698,"longitude":29.5372634,"name":"Стуканы","description":"Former hamlet; Wikipedia: be:Стуканы (Талачынскі раён)","date":null},{"latitude":54.5051901,"longitude":29.4585118,"name":"Лесіна","description":"Former hamlet; Wikipedia: be:Лесіна (Талачынскі раён)","date":null},{"latitude":54.70402,"longitude":29.54404,"name":"Шылькі","description":"Former hamlet","date":null},{"latitude":54.7230088,"longitude":29.4769802,"name":"Ковельшчына","description":"Former hamlet","date":null},{"latitude":54.68677,"longitude":29.55391,"name":"Бачарова","description":"Former hamlet","date":null},{"latitude":54.7402059,"longitude":29.4894553,"name":"Каміншчына","description":"Former hamlet; Wikipedia: be:Каміншчына (Сенненскі раён)","date":null},{"latitude":54.7605214,"longitude":29.5679462,"name":"Федэратыўная","description":"Former hamlet","date":null},{"latitude":54.7832783,"longitude":29.5630224,"name":"Смалоўка","description":"Former hamlet; Wikipedia: be:Смалоўка (Сенненскі раён)","date":null},{"latitude":54.814346,"longitude":29.477854,"name":"Кішуроўшчына","description":"Former hamlet; Wikipedia: be:Кішуроўшчына","date":null},{"latitude":54.78993,"longitude":29.62206,"name":"Пашкава","description":"Former hamlet","date":null},{"latitude":54.8188297,"longitude":29.6256707,"name":"Гарнакі","description":"Former hamlet; Wikipedia: be:Гарнакі","date":null},{"latitude":54.98554,"longitude":29.56713,"name":"Гракава","description":"Former hamlet; Wikipedia: be:Гракава","date":null},{"latitude":53.557491,"longitude":29.509279,"name":"Жэрдзішча","description":"Former hamlet; Wikipedia: be:Жэрдзішча","date":null},{"latitude":53.9020631,"longitude":29.6024478,"name":"Дубрава","description":"Former hamlet; Wikipedia: be:Дубрава (Бялыніцкі раён)","date":null},{"latitude":53.8947748,"longitude":29.5954279,"name":"Курганне","description":"Former hamlet; Wikipedia: be:Курганне (Бялыніцкі раён)","date":null},{"latitude":53.86854,"longitude":29.59691,"name":"Жорнаўка","description":"Former hamlet; Wikipedia: be:Жорнаўка (Бялыніцкі раён)","date":null},{"latitude":53.9599619,"longitude":29.4835717,"name":"Падборʼе","description":"Former hamlet","date":null},{"latitude":54.11033,"longitude":29.59374,"name":"Новае Поле","description":"Former hamlet","date":null},{"latitude":54.1203712,"longitude":29.4518111,"name":"Казёл","description":"Former hamlet; Wikipedia: be:Казёл (Круглянскі раён)","date":null},{"latitude":54.04896,"longitude":29.6182,"name":"Купленка","description":"Former hamlet; Wikipedia: be:Купленка (Бялыніцкі раён)","date":null},{"latitude":54.1993314,"longitude":29.4752661,"name":"Бярозка","description":"Former hamlet; Wikipedia: be:Бярозка (Круглянскі раён)","date":null},{"latitude":54.2419,"longitude":29.60026,"name":"Салаўёва","description":"Former hamlet","date":null},{"latitude":54.24345,"longitude":29.60781,"name":"Коссе","description":"Former hamlet","date":null},{"latitude":54.3223234,"longitude":29.5402107,"name":"Каменка","description":"Former hamlet; Wikipedia: be:Каменка (Талачынскі раён)","date":null},{"latitude":54.34095,"longitude":29.59657,"name":"Галошына","description":"Former hamlet","date":null},{"latitude":54.33357,"longitude":29.58927,"name":"Сідаркова","description":"Former hamlet","date":null},{"latitude":54.3641985,"longitude":29.5552601,"name":"Красілава","description":"Former hamlet; Wikipedia: be:Красілава","date":null},{"latitude":52.98036,"longitude":29.61356,"name":"Восава","description":"Former hamlet; Wikipedia: be:Восава (Варатынскі сельсавет)","date":null},{"latitude":52.9818853,"longitude":29.458205,"name":"Гарадок-Возера","description":"Former hamlet","date":null},{"latitude":53.02405,"longitude":29.52533,"name":"Падліпʼе","description":"Former hamlet","date":null},{"latitude":53.01573,"longitude":29.52018,"name":"Зара","description":"Former hamlet","date":null},{"latitude":53.116476,"longitude":29.4638902,"name":"Баршчэва","description":"Former hamlet","date":null},{"latitude":53.10413,"longitude":29.47168,"name":"Кальцо","description":"Former hamlet","date":null},{"latitude":53.2967948,"longitude":29.5139133,"name":"Гута","description":"Former hamlet","date":null},{"latitude":53.322826,"longitude":29.576191,"name":"Рагоўка","description":"Former hamlet; Wikipedia: be:Рагоўка","date":null},{"latitude":53.33922,"longitude":29.46087,"name":"Багданаўка","description":"Former hamlet; Wikipedia: ru:Богдановка (Кировский район)","date":null},{"latitude":51.47657,"longitude":29.492413,"name":"Хутар Сяргееў","description":"Former hamlet; Wikipedia: be:Хутар Сяргееў","date":null},{"latitude":51.497414,"longitude":29.552784,"name":"Ясенак","description":"Former hamlet; Wikipedia: ru:Ясенок (Гомельская область)","date":null},{"latitude":51.468891,"longitude":29.586781,"name":"Баровічы","description":"Former hamlet; Wikipedia: ru:Боровичи (Гомельская область)","date":null},{"latitude":55.9194418,"longitude":29.4339038,"name":"Ніўё","description":"Former hamlet; Wikipedia: be:Ніўё","date":null},{"latitude":55.9606671,"longitude":29.2811141,"name":"Шарстова","description":"Former hamlet; Wikipedia: be:Шарстова","date":null},{"latitude":55.84951,"longitude":29.27075,"name":"Ніўё","description":"Former hamlet","date":null},{"latitude":51.68647,"longitude":29.5655,"name":"Дворышча","description":"Former hamlet; Wikipedia: ru:Дворище (Наровлянский район)","date":null},{"latitude":51.828171,"longitude":29.579399,"name":"Ломыш","description":"Former hamlet; Wikipedia: be:Ломыш (вёска)","date":null},{"latitude":51.667839,"longitude":29.575541,"name":"Гамарня","description":"Former hamlet; Wikipedia: ru:Гамарня (Гомельская область)","date":null},{"latitude":51.67917,"longitude":29.5037,"name":"Белы Бераг","description":"Former hamlet; Wikipedia: be:Белы Бераг (Нараўлянскі раён)","date":null},{"latitude":51.625179,"longitude":29.55048,"name":"Чапаеўка","description":"Former hamlet; Wikipedia: ru:Чапаевка (Наровлянский район)","date":null},{"latitude":51.656708,"longitude":29.586376,"name":"Ліхаўня","description":"Former hamlet; Wikipedia: ru:Лиховня (Наровлянский район)","date":null},{"latitude":51.674881,"longitude":29.532709,"name":"Белабярэжская Рудня","description":"Former hamlet; Wikipedia: ru:Белобережская Рудня","date":null},{"latitude":51.65059,"longitude":29.62601,"name":"Данілееўка","description":"Former hamlet; Wikipedia: be-tarask:Данілееўка","date":null},{"latitude":51.514183,"longitude":29.625988,"name":"Ціхін","description":"Former hamlet; Wikipedia: ru:Тихин (Наровлянский район)","date":null},